store_no,name,division,address_line1,address_line2,suburb,state,postcode,latitude,longitude,phone,is_open,distance,gmt_zone,trading_hours
1550,Sydney Metcentre (Metro),SUPERMARKETS,60 Margaret Street,,Sydney,NSW,2000,-33.864935,151.206521,(02) 8565 9236,False,0.32,11:0,Today: Mon: 0600-2000 | Tomorrow: Tue: 0600-2000 | Wednesday: Wed: 0600-2000 | Thursday: Thu: 0600-2000 | Friday: Fri: 0600-2000 | Saturday: Sat: Closed | Sunday: Sun: Closed | Monday: Mon: 0600-2000
1211,Pitt St Mall (Metro),SUPERMARKETS,400 George St,,Sydney,NSW,2000,-33.8701,151.208267,(02) 9308 7388,False,0.59,11:0,Today: Mon: 0700-2200 | Tomorrow: Tue: 0700-2200 | Wednesday: Wed: 0700-2200 | Thursday: Thu: 0700-2200 | Friday: Fri: 0700-2200 | Saturday: Sat: 0800-2000 | Sunday: Sun: 0800-2000 | Monday: Mon: 0700-2200
8964,Barangaroo Metro,SUPERMARKETS,Shop 20/300 Barangaroo Ave,,Barangaroo,NSW,2000,-33.865306,151.202667,(02) 8709 4346,False,0.68,11:0,Today: Mon: 0700-2200 | Tomorrow: Tue: 0700-2200 | Wednesday: Wed: 0700-2200 | Thursday: Thu: 0700-2200 | Friday: Fri: 0700-2200 | Saturday: Sat: 0700-2200 | Sunday: Sun: 0700-2200 | Monday: Mon: 0700-2200
1248,Town Hall,SUPERMARKETS,Cnr Park & George Street,,Sydney,NSW,2000,-33.87304498,151.207038,(02) 8565 9275,False,0.94,11:0,Today: Mon: 0600-0000 | Tomorrow: Tue: 0600-0000 | Wednesday: Wed: 0600-0000 | Thursday: Thu: 0600-0000 | Friday: Fri: 0600-0000 | Saturday: Sat: 0700-0000 | Sunday: Sun: 0700-0000 | Monday: Mon: 0600-0000
1486,Woolloomooloo (Metro),SUPERMARKETS,75 Crown Street,,Woolloomooloo,NSW,2011,-33.87380218,151.2162258,(02) 8565 9321,False,1.14,11:0,Today: Mon: 0700-2300 | Tomorrow: Tue: 0700-2300 | Wednesday: Wed: 0700-2300 | Thursday: Thu: 0700-2300 | Friday: Fri: 0700-2300 | Saturday: Sat: 0700-2300 | Sunday: Sun: 0700-2300 | Monday: Mon: 0700-2300
1055,Potts Point (Metro),SUPERMARKETS,"Icon Building, 81 Macleay Street",,Potts Point,NSW,2011,-33.870603,151.2248,(02) 9308 7391,False,1.5,11:0,Today: Mon: 0700-2300 | Tomorrow: Tue: 0700-2300 | Wednesday: Wed: 0700-2300 | Thursday: Thu: 0700-2300 | Friday: Fri: 0700-2300 | Saturday: Sat: 0700-2300 | Sunday: Sun: 0700-2300 | Monday: Mon: 0700-2300
1270,Kings Cross Metro,SUPERMARKETS,111-139 Darlinghurst Rd,,Potts Point,NSW,2011,-33.874459,151.222562,(02) 8565 9381,False,1.57,11:0,Today: Mon: 0700-2300 | Tomorrow: Tue: 0700-2300 | Wednesday: Wed: 0700-2300 | Thursday: Thu: 0700-2300 | Friday: Fri: 0700-2300 | Saturday: Sat: 0700-2300 | Sunday: Sun: 0700-2300 | Monday: Mon: 0700-2300
1449,Pyrmont (Metro),SUPERMARKETS,63 Miller Street,,Pyrmont,NSW,2009,-33.8705305,151.1930142,(02) 8736 7447,False,1.68,11:0,Today: Mon: 0700-2300 | Tomorrow: Tue: 0700-2300 | Wednesday: Wed: 0700-2300 | Thursday: Thu: 0700-2300 | Friday: Fri: 0700-2300 | Saturday: Sat: 0700-2300 | Sunday: Sun: 0800-2300 | Monday: Mon: 0700-2300
1716,Haymarket Metro,SUPERMARKETS,61-79 Quay Street,,Haymarket,NSW,2000,-33.881461,151.203209,(02) 8736 7467,False,1.93,11:0,Today: Mon: 0700-2300 | Tomorrow: Tue: 0700-2300 | Wednesday: Wed: 0700-2300 | Thursday: Thu: 0700-2300 | Friday: Fri: 0700-2300 | Saturday: Sat: 0700-2300 | Sunday: Sun: 0700-2300 | Monday: Mon: 0700-2300
1256,Surry Hills (Metro),SUPERMARKETS,437 Bourke Street,,Surry Hills,NSW,2010,-33.882573,151.216238,(02) 8565 9212,False,2.04,11:0,Today: Mon: 0700-0000 | Tomorrow: Tue: 0700-0000 | Wednesday: Wed: 0700-0000 | Thursday: Thu: 0700-0000 | Friday: Fri: 0700-0000 | Saturday: Sat: 0700-0000 | Sunday: Sun: 0700-0000 | Monday: Mon: 0700-0000
1669,Central (Metro),SUPERMARKETS,302-306 Elizabeth Street,,Surry Hills,NSW,2010,-33.88372288,151.2084814,(02) 8736 7401,False,2.09,11:0,Today: Mon: 0600-0000 | Tomorrow: Tue: 0600-0000 | Wednesday: Wed: 0600-0000 | Thursday: Thu: 0600-0000 | Friday: Fri: 0600-0000 | Saturday: Sat: 0800-2200 | Sunday: Sun: 0800-2200 | Monday: Mon: 0600-0000
1905,Central Park (Metro),SUPERMARKETS,26-60 Broadway,,Chippendale,NSW,2008,-33.8845605,151.2006821,(02) 8736 7450,False,2.34,11:0,Today: Mon: 0700-2300 | Tomorrow: Tue: 0700-2300 | Wednesday: Wed: 0700-2300 | Thursday: Thu: 0700-2300 | Friday: Fri: 0700-2300 | Saturday: Sat: 0700-2300 | Sunday: Sun: 0700-2300 | Monday: Mon: 0700-2300
1329,Paddington (Metro),SUPERMARKETS,220 Glenmore Rd,,Paddington,NSW,2021,-33.88215088,151.2278366,(02) 8565 9369,False,2.52,11:0,Today: Mon: 0700-2200 | Tomorrow: Tue: 0700-2200 | Wednesday: Wed: 0700-2200 | Thursday: Thu: 0700-2200 | Friday: Fri: 0700-2200 | Saturday: Sat: 0700-2200 | Sunday: Sun: 0700-2200 | Monday: Mon: 0700-2200
8952,Balmain,SUPERMARKETS,276 Darling St,,Balmain,NSW,2041,-33.857672,151.181298,(02) 8565 9203,False,2.77,11:0,Today: Mon: 0700-2200 | Tomorrow: Tue: 0700-2200 | Wednesday: Wed: 0700-2200 | Thursday: Thu: 0700-2200 | Friday: Fri: 0700-2200 | Saturday: Sat: 0700-2200 | Sunday: Sun: 0700-2200 | Monday: Mon: 0700-2200
1816,North Sydney Metro,SUPERMARKETS,100 Miller St,,North Sydney,NSW,2060,-33.837855,151.206647,(02) 9305 1097,False,3.03,11:0,Today: Mon: 0700-2200 | Tomorrow: Tue: 0700-2200 | Wednesday: Wed: 0700-2200 | Thursday: Thu: 0700-2200 | Friday: Fri: 0700-2200 | Saturday: Sat: 0900-1900 | Sunday: Sun: 0900-1900 | Monday: Mon: 0700-2200
91834,Surry Hills,EG,475-489 Cleveland St,,Surry Hills,NSW,2016,-33.8922,151.2161,02 8870 7670,True,3.08,11:0,Today: Mon: 24 Hours | Tomorrow: Tue: 24 Hours | Wednesday: Wed: 24 Hours | Thursday: Thu: 24 Hours | Friday: Fri: 24 Hours | Saturday: Sat: 24 Hours | Sunday: Sun: 24 Hours | Monday: Mon: 24 Hours
1018,Redfern Station (Metro),SUPERMARKETS,1 Lawson Square,,Redfern,NSW,2016,-33.89274,151.19944,(02) 9305 1031,False,3.23,11:0,Today: Mon: 0700-2300 | Tomorrow: Tue: 0700-2300 | Wednesday: Wed: 0700-2300 | Thursday: Thu: 0700-2300 | Friday: Fri: 0700-2300 | Saturday: Sat: 0700-2300 | Sunday: Sun: 0700-2300 | Monday: Mon: 0700-2300
1474,Redfern,SUPERMARKETS,261-265 Chalmers Street,,Redfern,NSW,2016,-33.894652,151.205006,(02) 8565 9278,False,3.33,11:0,Today: Mon: 0700-2200 | Tomorrow: Tue: 0700-2200 | Wednesday: Wed: 0700-2200 | Thursday: Thu: 0700-2200 | Friday: Fri: 0700-2200 | Saturday: Sat: 0700-2200 | Sunday: Sun: 0700-2200 | Monday: Mon: 0700-2200
1416,Double Bay,SUPERMARKETS,Kiaora Lane and Kiaora Road,,Double Bay,NSW,2028,-33.87813873,151.2444126,(02) 8736 7472,False,3.5,11:0,Today: Mon: 0600-2300 | Tomorrow: Tue: 0600-2300 | Wednesday: Wed: 0600-2300 | Thursday: Thu: 0600-2300 | Friday: Fri: 0600-2300 | Saturday: Sat: 0600-2300 | Sunday: Sun: 0700-2300 | Monday: Mon: 0600-2300
1577,Rozelle Metro,SUPERMARKETS,605 Darling St,,Rozelle,NSW,2039,-33.86113,151.171249,(02) 8736 7475,False,3.6,11:0,Today: Mon: 0700-2200 | Tomorrow: Tue: 0700-2200 | Wednesday: Wed: 0700-2200 | Thursday: Thu: 0700-2200 | Friday: Fri: 0700-2200 | Saturday: Sat: 0700-2200 | Sunday: Sun: 0700-2200 | Monday: Mon: 0700-2200
22440,U-Go Rozelle,AMPOL,121-Victoria Rd Cnr Wellington St,,Rozelle,NSW,2039,-33.862558,151.168495,,True,3.84,11:0,Today: Mon: 24 Hours | Tomorrow: Tue: 24 Hours | Wednesday: Wed: 24 Hours | Thursday: Thu: 24 Hours | Friday: Fri: 24 Hours | Saturday: Sat: 24 Hours | Sunday: Sun: 24 Hours | Monday: Mon: 24 Hours
1113,Neutral Bay Village,SUPERMARKETS,1-7 Rangers Road,,Neutral Bay,NSW,2089,-33.831999,151.223851,(02) 9308 7367,False,3.89,11:0,Today: Mon: 0600-2300 | Tomorrow: Tue: 0600-2300 | Wednesday: Wed: 0600-2300 | Thursday: Thu: 0600-2300 | Friday: Fri: 0600-2300 | Saturday: Sat: 0600-2300 | Sunday: Sun: 0600-2300 | Monday: Mon: 0600-2300
22447,Ampol Foodary Neutral Bay,AMPOL,16-38-Military Rd,,Neutral Bay,NSW,2089,-33.829054,151.21632,,True,4.04,11:0,Today: Mon: 24 Hours | Tomorrow: Tue: 24 Hours | Wednesday: Wed: 24 Hours | Thursday: Thu: 24 Hours | Friday: Fri: 24 Hours | Saturday: Sat: 24 Hours | Sunday: Sun: 24 Hours | Monday: Mon: 24 Hours
22239,Ampol Foodary Crows Nest,AMPOL,111-121-Falcon St,,Crows Nest,NSW,2065,-33.828703,151.206007,,True,4.05,11:0,Today: Mon: 24 Hours | Tomorrow: Tue: 24 Hours | Wednesday: Wed: 24 Hours | Thursday: Thu: 24 Hours | Friday: Fri: 24 Hours | Saturday: Sat: 24 Hours | Sunday: Sun: 24 Hours | Monday: Mon: 24 Hours
22135,Ampol Foodary Alexandria,AMPOL,133-Wyndham St Cnr Mcevoy St,,Alexandria,NSW,2015,-33.9021424,151.1994031,,True,4.24,11:0,Today: Mon: 24 Hours | Tomorrow: Tue: 24 Hours | Wednesday: Wed: 24 Hours | Thursday: Thu: 24 Hours | Friday: Fri: 24 Hours | Saturday: Sat: 24 Hours | Sunday: Sun: 24 Hours | Monday: Mon: 24 Hours
1318,Crows Nest,SUPERMARKETS,10 Falcon Street,,Crows Nest,NSW,2065,-33.827359,151.201462,(02) 8565 9336,False,4.26,11:0,Today: Mon: 0700-2300 | Tomorrow: Tue: 0700-2300 | Wednesday: Wed: 0700-2300 | Thursday: Thu: 0700-2300 | Friday: Fri: 0700-2300 | Saturday: Sat: 0700-2300 | Sunday: Sun: 0700-2300 | Monday: Mon: 0700-2300
8946,Alexandria (Metro),SUPERMARKETS,10 Fountain St,,Alexandria,NSW,2015,-33.902473,151.194661,(02) 8565 9353,False,4.4,11:0,Today: Mon: 0700-2200 | Tomorrow: Tue: 0700-2200 | Wednesday: Wed: 0700-2200 | Thursday: Thu: 0700-2200 | Friday: Fri: 0700-2200 | Saturday: Sat: 0700-2200 | Sunday: Sun: 0700-2200 | Monday: Mon: 0700-2200
1324,Erskineville (Metro),SUPERMARKETS,21-23 Erskineville Road,,Newtown,NSW,2042,-33.89853874,151.1818915,(02) 8565 9297,False,4.54,11:0,Today: Mon: 0700-2200 | Tomorrow: Tue: 0700-2200 | Wednesday: Wed: 0700-2200 | Thursday: Thu: 0700-2200 | Friday: Fri: 0700-2200 | Saturday: Sat: 0700-2200 | Sunday: Sun: 0800-2200 | Monday: Mon: 0700-2200
1638,Green Square (Metro),SUPERMARKETS,20 - 26 Ebsworth Street,,Zetland,NSW,2017,-33.905907,151.204171,(02) 8565 9365,False,4.58,11:0,Today: Mon: 0700-2330 | Tomorrow: Tue: 0700-2330 | Wednesday: Wed: 0700-2330 | Thursday: Thu: 0700-2330 | Friday: Fri: 0700-2330 | Saturday: Sat: 0700-2330 | Sunday: Sun: 0700-2330 | Monday: Mon: 0700-2330
1130,Park Sydney (Metro),SUPERMARKETS,"57 Ashmore Street, Erskineville Park",,Erskineville Park,NSW,2043,-33.9043323,151.1897337,(02) 8736 7479,False,4.76,11:0,Today: Mon: 0700-2300 | Tomorrow: Tue: 0700-2300 | Wednesday: Wed: 0700-2300 | Thursday: Thu: 0700-2300 | Friday: Fri: 0700-2300 | Saturday: Sat: 0700-2300 | Sunday: Sun: 0700-2300 | Monday: Mon: 0700-2300
1557,Bondi Junction,SUPERMARKETS,"Westfield Shopping Centre, 530 Oxford Street",,Bondi Junction,NSW,2022,-33.89170699,151.251574,(02) 8565 9239,False,4.85,11:0,Today: Mon: 0600-2200 | Tomorrow: Tue: 0600-2200 | Wednesday: Wed: 0600-2200 | Thursday: Thu: 0600-2200 | Friday: Fri: 0600-2200 | Saturday: Sat: 0700-2200 | Sunday: Sun: 0700-2200 | Monday: Mon: 0600-2200
22689,Ampol Foodary Woollahra,AMPOL,118-Old South Head Rd,,Woollahra,NSW,2025,-33.88961,151.255386,,False,5,11:0,Today: Mon: 0600-2200 | Tomorrow: Tue: 0600-2200 | Wednesday: Wed: 0600-2200 | Thursday: Thu: 0600-2200 | Friday: Fri: 0600-2200 | Saturday: Sat: 0600-2200 | Sunday: Sun: 0600-2200 | Monday: Mon: 0600-2200
22221,Ampol Foodary Randwick,AMPOL,2-Alison Rd,,Randwick,NSW,2031,-33.906566,151.232047,,False,5.05,11:0,Today: Mon: 0500-2359 | Tomorrow: Tue: 0500-2359 | Wednesday: Wed: 0500-2359 | Thursday: Thu: 0500-2359 | Friday: Fri: 0500-2359 | Saturday: Sat: 0500-2359 | Sunday: Sun: 0500-2359 | Monday: Mon: 0500-2359
8533,Mosman (Metro),SUPERMARKETS,731-741 Military Rd,,Mosman,NSW,2088,-33.82849,151.24375,(02) 9305 1039,False,5.12,11:0,Today: Mon: 0700-2200 | Tomorrow: Tue: 0700-2200 | Wednesday: Wed: 0700-2200 | Thursday: Thu: 0700-2200 | Friday: Fri: 0700-2200 | Saturday: Sat: 0700-2200 | Sunday: Sun: 0800-2200 | Monday: Mon: 0700-2200
1756,Rosebery Metro,SUPERMARKETS,"32 Confectioners way,  Rosebery",,Rosebery,NSW,2018,-33.91307,151.20731,(02) 8736 7453,False,5.35,11:0,Today: Mon: 0700-2300 | Tomorrow: Tue: 0700-2300 | Wednesday: Wed: 0700-2300 | Thursday: Thu: 0700-2300 | Friday: Fri: 0700-2300 | Saturday: Sat: 0700-2300 | Sunday: Sun: 0700-2300 | Monday: Mon: 0700-2300
1901,Rose Bay (Metro),SUPERMARKETS,757 New South Head Road,,Rose Bay,NSW,2029,-33.87072752,151.2684722,(02) 8565 9315,False,5.44,11:0,Today: Mon: 0700-2200 | Tomorrow: Tue: 0700-2200 | Wednesday: Wed: 0700-2200 | Thursday: Thu: 0700-2200 | Friday: Fri: 0700-2200 | Saturday: Sat: 0700-2200 | Sunday: Sun: 0700-2200 | Monday: Mon: 0700-2200
22316,Ampol Foodary Kensington,AMPOL,211-213-Anzac Parade,,Kensington,NSW,2033,-33.914806,151.225394,,False,5.72,11:0,Today: Mon: 0500-2359 | Tomorrow: Tue: 0500-2359 | Wednesday: Wed: 0500-2359 | Thursday: Thu: 0500-2359 | Friday: Fri: 0500-2359 | Saturday: Sat: 0500-2359 | Sunday: Sun: 0500-2359 | Monday: Mon: 0500-2359
22180,Ampol Foodary Bondi North,AMPOL,321-Old South Head Rd,,North Bondi,NSW,2026,-33.8846282,151.2685523,,True,5.83,11:0,Today: Mon: 24 Hours | Tomorrow: Tue: 24 Hours | Wednesday: Wed: 24 Hours | Thursday: Thu: 24 Hours | Friday: Fri: 24 Hours | Saturday: Sat: 24 Hours | Sunday: Sun: 24 Hours | Monday: Mon: 24 Hours
1066,Rose Bay - Direct to Boot Only,SUPERMARKETS,488 Old South Head Road,,Rose Bay,NSW,2029,-33.8748665,151.2723417,(02) 8736 7464,False,5.86,11:0,Today: Mon: 0800-2100 | Tomorrow: Tue: 0800-2100 | Wednesday: Wed: 0800-2100 | Thursday: Thu: 0800-2100 | Friday: Fri: 0800-2100 | Saturday: Sat: 0800-2100 | Sunday: Sun: 0800-2100 | Monday: Mon: 0800-2100
8385,Bondi Road (Metro),SUPERMARKETS,"137-147 Bondi Rd, Bondi NSW 2026",,Bondi Beach,NSW,2026,-33.89409,151.26305,(02) 9305 1010,False,5.87,11:0,Today: Mon: 0700-2300 | Tomorrow: Tue: 0700-2300 | Wednesday: Wed: 0700-2300 | Thursday: Thu: 0700-2300 | Friday: Fri: 0700-2300 | Saturday: Sat: 0700-2300 | Sunday: Sun: 0700-2300 | Monday: Mon: 0700-2300
1649,Marrickville Metro,SUPERMARKETS,"Marrickville Shopping Centre, 34 Victoria Road",,Marrickville,NSW,2204,-33.9072222,151.1711111,(02) 8565 9254,False,5.91,11:0,Today: Mon: 0700-2200 | Tomorrow: Tue: 0700-2200 | Wednesday: Wed: 0700-2200 | Thursday: Thu: 0700-2200 | Friday: Fri: 0700-2200 | Saturday: Sat: 0700-2200 | Sunday: Sun: 0700-2200 | Monday: Mon: 0700-2200
1647,Leichhardt Marketplace,SUPERMARKETS,"Leichhardt Market Place, 100/122-138 Flood Street",,Leichhardt,NSW,2040,-33.88483,151.149306,(02) 8565 9251,False,6.02,11:0,Today: Mon: 0700-2200 | Tomorrow: Tue: 0700-2200 | Wednesday: Wed: 0700-2200 | Thursday: Thu: 0700-2200 | Friday: Fri: 0700-2200 | Saturday: Sat: 0700-2200 | Sunday: Sun: 0700-2200 | Monday: Mon: 0700-2200
1199,Northbridge,SUPERMARKETS,79-113 Sailors Bay Road,,Northbridge,NSW,2063,-33.80963934,151.2090993,(02) 9308 7379,False,6.16,11:0,Today: Mon: 0700-2200 | Tomorrow: Tue: 0700-2200 | Wednesday: Wed: 0700-2200 | Thursday: Thu: 0700-2200 | Friday: Fri: 0700-2200 | Saturday: Sat: 0700-2200 | Sunday: Sun: 0700-2200 | Monday: Mon: 0700-2200
1631,Randwick Metro,SUPERMARKETS,73 Belmore Road,,Randwick,NSW,2031,-33.91488,151.24072,(02) 8565 9248,False,6.23,11:0,Today: Mon: 0700-2300 | Tomorrow: Tue: 0700-2300 | Wednesday: Wed: 0700-2300 | Thursday: Thu: 0700-2300 | Friday: Fri: 0700-2300 | Saturday: Sat: 0700-2300 | Sunday: Sun: 0700-2300 | Monday: Mon: 0700-2300
91642,Leichhardt,EG,774 Parramatta Road (Cnr Carrington Street),,Leichhardt,NSW,2049,-33.8903,151.148,02 8870 7653,True,6.38,11:0,Today: Mon: 24 Hours | Tomorrow: Tue: 24 Hours | Wednesday: Wed: 24 Hours | Thursday: Thu: 24 Hours | Friday: Fri: 24 Hours | Saturday: Sat: 24 Hours | Sunday: Sun: 24 Hours | Monday: Mon: 24 Hours
22374,Ampol Foodary Rosebery,AMPOL,321-Gardeners Rd,,Rosebery,NSW,2018,-33.922829,151.206234,,True,6.44,11:0,Today: Mon: 24 Hours | Tomorrow: Tue: 24 Hours | Wednesday: Wed: 24 Hours | Thursday: Thu: 24 Hours | Friday: Fri: 24 Hours | Saturday: Sat: 24 Hours | Sunday: Sun: 24 Hours | Monday: Mon: 24 Hours
8274,Eastlakes Metro,SUPERMARKETS,"The Grand Eastlakes, Shop 02, 16 Evans Avenue, Eastlakes, NSW, 2018",,Eastlakes,NSW,2018,-33.92467,151.21032,(02) 9308 7315,False,6.64,11:0,Today: Mon: 0700-2100 | Tomorrow: Tue: 0700-2100 | Wednesday: Wed: 0700-2100 | Thursday: Thu: 0700-2100 | Friday: Fri: 0700-2100 | Saturday: Sat: 0700-2100 | Sunday: Sun: 0700-2100 | Monday: Mon: 0700-2100
1545,Bondi Beach (Metro),SUPERMARKETS,184 Campbell Parade,,Bondi Beach,NSW,2026,-33.889324,151.275828,(02) 8565 9324,False,6.65,11:0,Today: Mon: 0600-0000 | Tomorrow: Tue: 0600-0000 | Wednesday: Wed: 0600-0000 | Thursday: Thu: 0600-0000 | Friday: Fri: 0600-0000 | Saturday: Sat: 0600-0000 | Sunday: Sun: 0600-0000 | Monday: Mon: 0600-0000
1798,Bronte Metro,SUPERMARKETS,113 Macpherson St,,Bronte,NSW,2024,-33.90629,151.26249,(02) 8736 7439,False,6.68,11:0,Today: Mon: 0700-2200 | Tomorrow: Tue: 0700-2200 | Wednesday: Wed: 0700-2200 | Thursday: Thu: 0700-2200 | Friday: Fri: 0700-2200 | Saturday: Sat: 0700-2200 | Sunday: Sun: 0700-2200 | Monday: Mon: 0700-2200
1103,Lane Cove,SUPERMARKETS,Cnr Longueville Road And Austin Street,,Lane Cove,NSW,2066,-33.81516537,151.1690647,(02) 9308 7364,False,6.71,11:0,Today: Mon: 0700-2200 | Tomorrow: Tue: 0700-2200 | Wednesday: Wed: 0700-2200 | Thursday: Thu: 0700-2200 | Friday: Fri: 0700-2200 | Saturday: Sat: 0700-2200 | Sunday: Sun: 0700-2200 | Monday: Mon: 0700-2200
1442,Mascot,SUPERMARKETS,55 Church Avenue,,Mascot,NSW,2020,-33.922926,151.185822,(02) 8565 9333,False,6.82,11:0,Today: Mon: 0700-2200 | Tomorrow: Tue: 0700-2200 | Wednesday: Wed: 0700-2200 | Thursday: Thu: 0700-2200 | Friday: Fri: 0700-2200 | Saturday: Sat: 0700-2200 | Sunday: Sun: 0700-2200 | Monday: Mon: 0700-2200
22399,Ampol Foodary Coogee,AMPOL,146-148-Coogee Bay Rd,,Coogee,NSW,2034,-33.9199406,151.2517628,,True,7.22,11:0,Today: Mon: 24 Hours | Tomorrow: Tue: 24 Hours | Wednesday: Wed: 24 Hours | Thursday: Thu: 24 Hours | Friday: Fri: 24 Hours | Saturday: Sat: 24 Hours | Sunday: Sun: 24 Hours | Monday: Mon: 24 Hours
1590,Illawarra Rd Metro,SUPERMARKETS,"258 Illawarra Rd, Marrickville",,Marrickville,NSW,2204,-33.91131,151.15512,(02) 8736 7458,False,7.22,11:0,Today: Mon: 0600-2300 | Tomorrow: Tue: 0600-2300 | Wednesday: Wed: 0600-2300 | Thursday: Thu: 0600-2300 | Friday: Fri: 0600-2300 | Saturday: Sat: 0700-2300 | Sunday: Sun: 0700-2300 | Monday: Mon: 0600-2300
1813,Ashfield North,SUPERMARKETS,202-242 Parramatta Road,,Ashfield,NSW,2131,-33.88073376,151.1321683,(02) 9305 1028,False,7.4,11:0,Today: Mon: 0700-2200 | Tomorrow: Tue: 0700-2200 | Wednesday: Wed: 0700-2200 | Thursday: Thu: 0700-2200 | Friday: Fri: 0700-2200 | Saturday: Sat: 0700-2200 | Sunday: Sun: 0700-2200 | Monday: Mon: 0700-2200
22529,Ampol Foodary Five Dock,AMPOL,Fairlight St Cnr Ramsay Rd,,Five Dock,NSW,2046,-33.869997,151.130092,,False,7.4,11:0,Today: Mon: 0500-2359 | Tomorrow: Tue: 0500-2359 | Wednesday: Wed: 0500-2359 | Thursday: Thu: 0500-2359 | Friday: Fri: 0500-2359 | Saturday: Sat: 0500-2359 | Sunday: Sun: 0500-2359 | Monday: Mon: 0500-2359
28895,Ampol Foodary Chatswood,AMPOL,572-Pacific Hwy,,Chatswood,NSW,2067,-33.803689,151.178937,,True,7.4,11:0,Today: Mon: 24 Hours | Tomorrow: Tue: 24 Hours | Wednesday: Wed: 24 Hours | Thursday: Thu: 24 Hours | Friday: Fri: 24 Hours | Saturday: Sat: 24 Hours | Sunday: Sun: 24 Hours | Monday: Mon: 24 Hours
1755,Coogee Metro,SUPERMARKETS,"Coogee Bay Village, 184-196 Coogee Bay Road",,Coogee,NSW,2034,-33.92049097,151.254401,(02) 8565 9257,False,7.41,11:0,Today: Mon: 0700-2300 | Tomorrow: Tue: 0700-2300 | Wednesday: Wed: 0700-2300 | Thursday: Thu: 0700-2300 | Friday: Fri: 0700-2300 | Saturday: Sat: 0700-2300 | Sunday: Sun: 0700-2300 | Monday: Mon: 0700-2300
28791,Ampol Foodary Lane Cove West,AMPOL,237-245-Burns Bay Rd,,Lane Cove West,NSW,2066,-33.816521,151.151386,,False,7.64,11:0,Today: Mon: 0500-2359 | Tomorrow: Tue: 0500-2359 | Wednesday: Wed: 0500-2359 | Thursday: Thu: 0500-2359 | Friday: Fri: 0500-2359 | Saturday: Sat: 0500-2359 | Sunday: Sun: 0500-2359 | Monday: Mon: 0500-2359
1149,Marrickville,SUPERMARKETS,463 Illawarra Road,,Marrickville,NSW,2204,-33.916516,151.150246,(02) 8565 9200,False,7.95,11:0,Today: Mon: 0700-2300 | Tomorrow: Tue: 0700-2300 | Wednesday: Wed: 0700-2300 | Thursday: Thu: 0700-2300 | Friday: Fri: 0700-2300 | Saturday: Sat: 0700-2100 | Sunday: Sun: 0700-2100 | Monday: Mon: 0700-2300
1166,Chatswood Rail Metro,SUPERMARKETS,Shop 55 Chatswood Rail Interchange,,Chatswood,NSW,2057,-33.797094,151.180894,(02) 8565 9350,False,8.02,11:0,Today: Mon: 0700-2300 | Tomorrow: Tue: 0700-2300 | Wednesday: Wed: 0700-2300 | Thursday: Thu: 0700-2300 | Friday: Fri: 0700-2300 | Saturday: Sat: 0700-2300 | Sunday: Sun: 0700-2300 | Monday: Mon: 0700-2300
28821,Ampol Foodary Kingsford,AMPOL,603-611-Anzac Pde Cnr Snape St,,Kingsford,NSW,2032,-33.934311,151.237128,,False,8.1,11:0,Today: Mon: 0500-2300 | Tomorrow: Tue: 0500-2300 | Wednesday: Wed: 0500-2300 | Thursday: Thu: 0500-2300 | Friday: Fri: 0500-2359 | Saturday: Sat: 0500-2359 | Sunday: Sun: 0500-2300 | Monday: Mon: 0500-2300
22729,Ampol Foodary Tempe,AMPOL,775-Princes Hwy,,Tempe,NSW,2044,-33.925131,151.159938,,True,8.13,11:0,Today: Mon: 24 Hours | Tomorrow: Tue: 24 Hours | Wednesday: Wed: 24 Hours | Thursday: Thu: 24 Hours | Friday: Fri: 24 Hours | Saturday: Sat: 24 Hours | Sunday: Sun: 24 Hours | Monday: Mon: 24 Hours
91936,Marrickville,EG,490 Illawarra Road (Cnr Hill Street),,Marrickville,NSW,2204,-33.9185,151.146,02 8870 7604,False,8.38,11:0,Today: Mon: 0600-2200 | Tomorrow: Tue: 0600-2200 | Wednesday: Wed: 0600-2200 | Thursday: Thu: 0600-2200 | Friday: Fri: 0600-2200 | Saturday: Sat: 0600-2200 | Sunday: Sun: 0600-2200 | Monday: Mon: 0600-2200
1213,Ashfield,SUPERMARKETS,260A Liverpool Road,,Ashfield,NSW,2131,-33.889379,151.124003,(02) 8565 9206,False,8.39,11:0,Today: Mon: 0700-2300 | Tomorrow: Tue: 0700-2300 | Wednesday: Wed: 0700-2300 | Thursday: Thu: 0700-2300 | Friday: Fri: 0700-2300 | Saturday: Sat: 0700-2200 | Sunday: Sun: 0700-2200 | Monday: Mon: 0700-2300
1360,Boronia Park Metro,SUPERMARKETS,130 Pittwater Road,,Boronia Park,NSW,2111,-33.822164,151.133659,(02) 9308 7349,False,8.51,11:0,Today: Mon: 0700-2200 | Tomorrow: Tue: 0700-2200 | Wednesday: Wed: 0700-2200 | Thursday: Thu: 0700-2200 | Friday: Fri: 0700-2200 | Saturday: Sat: 0700-2200 | Sunday: Sun: 0700-2200 | Monday: Mon: 0700-2200
22392,Ampol Foodary Coogee South,AMPOL,169-173-Malabar Rd,,Coogee South,NSW,2034,-33.932528,151.257218,,False,8.68,11:0,Today: Mon: 0600-2200 | Tomorrow: Tue: 0600-2200 | Wednesday: Wed: 0600-2200 | Thursday: Thu: 0600-2200 | Friday: Fri: 0600-2200 | Saturday: Sat: 0600-2200 | Sunday: Sun: 0600-2200 | Monday: Mon: 0600-2200
91833,Chatswood East,EG,364-366 Eastern Valley Way,,Chatswood East,NSW,2067,-33.7867,151.2011,02 8073 3981,True,8.75,11:0,Today: Mon: 24 Hours | Tomorrow: Tue: 24 Hours | Wednesday: Wed: 24 Hours | Thursday: Thu: 24 Hours | Friday: Fri: 24 Hours | Saturday: Sat: 24 Hours | Sunday: Sun: 24 Hours | Monday: Mon: 24 Hours
1002,Chatswood East,SUPERMARKETS,17 Smith St,,Chatswood,NSW,2067,-33.7862615,151.1982009,(02) 9305 1035,False,8.82,11:0,Today: Mon: 0700-2200 | Tomorrow: Tue: 0700-2200 | Wednesday: Wed: 0700-2200 | Thursday: Thu: 0700-2200 | Friday: Fri: 0700-2200 | Saturday: Sat: 0700-2200 | Sunday: Sun: 0700-2200 | Monday: Mon: 0700-2200
1412,Eastgardens,SUPERMARKETS,"Eastgardens Shopping Centre, 152 Bunnerong Road",,Pagewood,NSW,2036,-33.9443378,151.2249797,(02) 8565 9233,False,8.93,11:0,Today: Mon: 0700-2300 | Tomorrow: Tue: 0700-2300 | Wednesday: Wed: 0700-2300 | Thursday: Thu: 0700-2300 | Friday: Fri: 0700-2300 | Saturday: Sat: 0700-2300 | Sunday: Sun: 0700-2300 | Monday: Mon: 0700-2300
1128,Wolli Creek,SUPERMARKETS,78-96 Arncliffe Street,,Wolli Creek,NSW,2205,-33.9307396,151.154055,(02) 8565 9281,False,8.95,11:0,Today: Mon: 0700-2300 | Tomorrow: Tue: 0700-2300 | Wednesday: Wed: 0700-2300 | Thursday: Thu: 0700-2300 | Friday: Fri: 0700-2300 | Saturday: Sat: 0700-2300 | Sunday: Sun: 0700-2300 | Monday: Mon: 0700-2300
22430,Ampol Foodary Croydon,AMPOL,404-410-Liverpool Rd,,Croydon,NSW,2132,-33.8884891,151.1160172,,False,9.06,11:0,Today: Mon: 0500-2359 | Tomorrow: Tue: 0500-2359 | Wednesday: Wed: 0500-2359 | Thursday: Thu: 0500-2359 | Friday: Fri: 0500-2359 | Saturday: Sat: 0500-2359 | Sunday: Sun: 0500-2359 | Monday: Mon: 0500-2359
1332,Burwood,SUPERMARKETS,"Shop 6, Level 3, Westfield Shopping Centre, 100 Burwood Road",,Burwood,NSW,2134,-33.87426403,151.1047868,(02) 8565 9224,False,9.77,11:0,Today: Mon: 0700-2200 | Tomorrow: Tue: 0700-2200 | Wednesday: Wed: 0700-2200 | Thursday: Thu: 0700-2200 | Friday: Fri: 0700-2200 | Saturday: Sat: 0700-2200 | Sunday: Sun: 0700-2200 | Monday: Mon: 0700-2200
1231,Hillsdale,SUPERMARKETS,"South Point Shopping Centre, 238-262 Bunnerong Road",,Hillsdale,NSW,2036,-33.9512455,151.2305711,(02) 8565 9209,False,9.78,11:0,Today: Mon: 0700-2200 | Tomorrow: Tue: 0700-2200 | Wednesday: Wed: 0700-2200 | Thursday: Thu: 0700-2200 | Friday: Fri: 0700-2200 | Saturday: Sat: 0700-2100 | Sunday: Sun: 0700-2000 | Monday: Mon: 0700-2200
1034,Canterbury,SUPERMARKETS,2A Charles Street,,Canterbury,NSW,2193,-33.912263,151.118083,(02) 8565 9347,False,9.98,11:0,Today: Mon: 0700-2200 | Tomorrow: Tue: 0700-2200 | Wednesday: Wed: 0700-2200 | Thursday: Thu: 0700-2200 | Friday: Fri: 0700-2200 | Saturday: Sat: 0700-2200 | Sunday: Sun: 0700-2200 | Monday: Mon: 0700-2200
91769,Burwood,EG,400 Parramatta Road,,Burwood,NSW,2134,-33.8687,151.1015,02 6324 2902,True,10.03,11:0,Today: Mon: 24 Hours | Tomorrow: Tue: 24 Hours | Wednesday: Wed: 24 Hours | Thursday: Thu: 24 Hours | Friday: Fri: 24 Hours | Saturday: Sat: 24 Hours | Sunday: Sun: 24 Hours | Monday: Mon: 24 Hours
1573,Balgowlah,SUPERMARKETS,17-31 Roseberry Street,,Balgowlah,NSW,2093,-33.788345,151.267518,(02) 8565 9291,False,10.04,11:0,Today: Mon: 0700-2200 | Tomorrow: Tue: 0700-2200 | Wednesday: Wed: 0700-2200 | Thursday: Thu: 0700-2200 | Friday: Fri: 0700-2200 | Saturday: Sat: 0700-2200 | Sunday: Sun: 0700-2200 | Monday: Mon: 0700-2200
1614,Burwood Plaza,SUPERMARKETS,"Burwood Plaza Shopping Centre, 42-50 Railway Parade",,Burwood,NSW,2134,-33.877267,151.101959,(02) 8565 9242,False,10.07,11:0,Today: Mon: 0700-2100 | Tomorrow: Tue: 0700-2100 | Wednesday: Wed: 0700-2100 | Thursday: Thu: 0700-2100 | Friday: Fri: 0700-2100 | Saturday: Sat: 0800-2100 | Sunday: Sun: 0800-2100 | Monday: Mon: 0700-2100
22362,Ampol Foodary Concord,AMPOL,87-89-Parramatta Rd,,Concord,NSW,2137,-33.867866,151.0992709,,True,10.23,11:0,Today: Mon: 24 Hours | Tomorrow: Tue: 24 Hours | Wednesday: Wed: 24 Hours | Thursday: Thu: 24 Hours | Friday: Fri: 24 Hours | Saturday: Sat: 24 Hours | Sunday: Sun: 24 Hours | Monday: Mon: 24 Hours
1376,Maroubra Beach Metro,SUPERMARKETS,"Maroubra Shopping Village, 3 Meagher Avenue",,Maroubra,NSW,2035,-33.95152699,151.24939,(02) 8565 9227,False,10.29,11:0,Today: Mon: 0700-2200 | Tomorrow: Tue: 0700-2200 | Wednesday: Wed: 0700-2200 | Thursday: Thu: 0700-2200 | Friday: Fri: 0700-2200 | Saturday: Sat: 0700-2200 | Sunday: Sun: 0700-2200 | Monday: Mon: 0700-2200
22259,Ampol Foodary Manly Vale,AMPOL,236-238-Condamine St,,Manly Vale,NSW,2093,-33.785069,151.267353,,False,10.35,11:0,Today: Mon: 0600-2000 | Tomorrow: Tue: 0600-2000 | Wednesday: Wed: 0600-2000 | Thursday: Thu: 0600-2000 | Friday: Fri: 0600-2000 | Saturday: Sat: 0700-2000 | Sunday: Sun: 0700-2000 | Monday: Mon: 0600-2000
1770,Matraville,SUPERMARKETS,Bunnerong Road and Daunt Ave,,Matraville,NSW,2036,-33.9575614,151.2307964,(02) 8565 9294,False,10.47,11:0,Today: Mon: 0700-2200 | Tomorrow: Tue: 0700-2200 | Wednesday: Wed: 0700-2200 | Thursday: Thu: 0700-2200 | Friday: Fri: 0700-2200 | Saturday: Sat: 0700-2200 | Sunday: Sun: 0700-2200 | Monday: Mon: 0700-2200
22297,Ampol Foodary Manly,AMPOL,86-Pittwater Rd,,Manly,NSW,2095,-33.79305,151.285803,,True,10.63,11:0,Today: Mon: 24 Hours | Tomorrow: Tue: 24 Hours | Wednesday: Wed: 24 Hours | Thursday: Thu: 24 Hours | Friday: Fri: 24 Hours | Saturday: Sat: 24 Hours | Sunday: Sun: 24 Hours | Monday: Mon: 24 Hours
1624,Strathfield,SUPERMARKETS,"Shop 19, Strathfield Plaza, 11 The Boulevard",,Strathfield,NSW,2135,-33.87297,151.09313,(02) 8565 9245,False,10.83,11:0,Today: Mon: 0700-2300 | Tomorrow: Tue: 0700-2300 | Wednesday: Wed: 0700-2300 | Thursday: Thu: 0700-2300 | Friday: Fri: 0700-2300 | Saturday: Sat: 0700-2300 | Sunday: Sun: 0700-2300 | Monday: Mon: 0700-2300
1289,North Strathfield (Metro),SUPERMARKETS,145 Concord Road,,North Strathfield,NSW,2137,-33.859073,151.092555,(02) 8565 9218,False,10.86,11:0,Today: Mon: 0700-2100 | Tomorrow: Tue: 0700-2100 | Wednesday: Wed: 0700-2100 | Thursday: Thu: 0700-2100 | Friday: Fri: 0700-2100 | Saturday: Sat: 0700-2100 | Sunday: Sun: 0800-2000 | Monday: Mon: 0700-2100
22708,Ampol Foodary North Ryde,AMPOL,41-43-Epping Rd Cnr Wicks Rd,,North Ryde,NSW,2113,-33.791512,151.131256,,True,10.94,11:0,Today: Mon: 24 Hours | Tomorrow: Tue: 24 Hours | Wednesday: Wed: 24 Hours | Thursday: Thu: 24 Hours | Friday: Fri: 24 Hours | Saturday: Sat: 24 Hours | Sunday: Sun: 24 Hours | Monday: Mon: 24 Hours
91460,Strathfield,EG,287 Liverpool Road,,Strathfield,NSW,2134,-33.8854,151.0937,02 9157 9430,True,10.97,11:0,Today: Mon: 24 Hours | Tomorrow: Tue: 24 Hours | Wednesday: Wed: 24 Hours | Thursday: Thu: 24 Hours | Friday: Fri: 24 Hours | Saturday: Sat: 24 Hours | Sunday: Sun: 24 Hours | Monday: Mon: 24 Hours
91831,Rockdale,EG,314 Princes Highway (Cnr Banksia Street),,Rockdale,NSW,2216,-33.9457,151.1417,02 8073 7684,True,10.97,11:0,Today: Mon: 24 Hours | Tomorrow: Tue: 24 Hours | Wednesday: Wed: 24 Hours | Thursday: Thu: 24 Hours | Friday: Fri: 24 Hours | Saturday: Sat: 24 Hours | Sunday: Sun: 24 Hours | Monday: Mon: 24 Hours
1339,Top Ryde,SUPERMARKETS,Cnr Devlin Street And Blaxland Road,,Ryde,NSW,2112,-33.81176431,151.1072172,(02) 9308 7343,False,11.19,11:0,Today: Mon: 0700-2200 | Tomorrow: Tue: 0700-2200 | Wednesday: Wed: 0700-2200 | Thursday: Thu: 0700-2200 | Friday: Fri: 0700-2200 | Saturday: Sat: 0700-2200 | Sunday: Sun: 0700-2200 | Monday: Mon: 0700-2200
1061,Campsie,SUPERMARKETS,68-72 Evaline St,,Campsie,NSW,2194,-33.913614,151.10291,(02) 9308 7395,False,11.27,11:0,Today: Mon: 0700-2200 | Tomorrow: Tue: 0700-2200 | Wednesday: Wed: 0700-2200 | Thursday: Thu: 0700-2200 | Friday: Fri: 0700-2200 | Saturday: Sat: 0700-2200 | Sunday: Sun: 0700-2200 | Monday: Mon: 0700-2200
1370,Bexley North (Metro),SUPERMARKETS,216 Sarsfield Circuit,,Bexley North,NSW,2207,-33.93898965,151.1149231,(02) 8565 9263,False,12.03,11:0,Today: Mon: 0700-2130 | Tomorrow: Tue: 0700-2130 | Wednesday: Wed: 0700-2130 | Thursday: Thu: 0700-2130 | Friday: Fri: 0700-2130 | Saturday: Sat: 0700-2130 | Sunday: Sun: 0700-2130 | Monday: Mon: 0700-2130
1176,Rhodes,SUPERMARKETS,6-14 Walker Street,,Rhodes,NSW,2138,-33.8299553,151.0856931,(02) 8736 7495,False,12.12,11:0,Today: Mon: 0700-2300 | Tomorrow: Tue: 0700-2300 | Wednesday: Wed: 0700-2300 | Thursday: Thu: 0700-2300 | Friday: Fri: 0700-2300 | Saturday: Sat: 0800-2300 | Sunday: Sun: 0800-2300 | Monday: Mon: 0700-2300
1282,Warringah Mall (Brookvale),SUPERMARKETS,Pittwater Road,,Brookvale,NSW,2100,-33.76581094,151.2647198,(02) 9308 7382,False,12.13,11:0,Today: Mon: 0700-2200 | Tomorrow: Tue: 0700-2200 | Wednesday: Wed: 0700-2200 | Thursday: Thu: 0700-2200 | Friday: Fri: 0700-2200 | Saturday: Sat: 0700-2200 | Sunday: Sun: 0700-2200 | Monday: Mon: 0700-2200
1252,Rockdale,SUPERMARKETS,"Rockdale Plaza, 1 Rockdale Plaza Drive",,Rockdale,NSW,2216,-33.9582086,151.1401211,(02) 8565 9260,False,12.21,11:0,Today: Mon: 0700-2200 | Tomorrow: Tue: 0700-2200 | Wednesday: Wed: 0700-2200 | Thursday: Thu: 0700-2200 | Friday: Fri: 0700-2200 | Saturday: Sat: 0700-2200 | Sunday: Sun: 0700-2200 | Monday: Mon: 0700-2200
91296,West Ryde,EG,924 Victoria Road,,West Ryde,NSW,2112,-33.8108,151.0935,02 8870 7681,False,12.33,11:0,Today: Mon: 0500-0000 | Tomorrow: Tue: 0500-0000 | Wednesday: Wed: 0500-0000 | Thursday: Thu: 0500-0000 | Friday: Fri: 0500-0000 | Saturday: Sat: 0500-0000 | Sunday: Sun: 0500-0000 | Monday: Mon: 0500-0000
20036,Ampol Foodary Strathfield South,AMPOL,600-Liverpool Rd,,Strathfield South,NSW,2136,-33.887957,151.074397,,True,12.78,11:0,Today: Mon: 24 Hours | Tomorrow: Tue: 24 Hours | Wednesday: Wed: 24 Hours | Thursday: Thu: 24 Hours | Friday: Fri: 24 Hours | Saturday: Sat: 24 Hours | Sunday: Sun: 24 Hours | Monday: Mon: 24 Hours
1063,Frenchs Forest,SUPERMARKETS,"Forestway Shopping Centre, Cnr Russell Avenue And Forest Way",,Frenchs Forest,NSW,2086,-33.750748,151.224838,(02) 9308 7355,False,12.78,11:0,Today: Mon: 0700-2200 | Tomorrow: Tue: 0700-2200 | Wednesday: Wed: 0700-2200 | Thursday: Thu: 0700-2200 | Friday: Fri: 0700-2200 | Saturday: Sat: 0700-2200 | Sunday: Sun: 0700-2200 | Monday: Mon: 0700-2200
1129,Macquarie Ryde,SUPERMARKETS,"Macquarie Shopping Centre, Cnr Waterloo And Herring Roads",,North Ryde,NSW,2113,-33.7775544,151.1200081,(02) 9308 7337,False,12.79,11:0,Today: Mon: 0700-2300 | Tomorrow: Tue: 0700-2300 | Wednesday: Wed: 0700-2300 | Thursday: Thu: 0700-2300 | Friday: Fri: 0700-2300 | Saturday: Sat: 0700-2300 | Sunday: Sun: 0700-2300 | Monday: Mon: 0700-2300
91993,Kogarah,EG,69 Princes Hwy (Cnr Gladstone St),,Kogarah,NSW,2217,-33.9632,151.1372,02 9054 2192,True,12.82,11:0,Today: Mon: 24 Hours | Tomorrow: Tue: 24 Hours | Wednesday: Wed: 24 Hours | Thursday: Thu: 24 Hours | Friday: Fri: 24 Hours | Saturday: Sat: 24 Hours | Sunday: Sun: 24 Hours | Monday: Mon: 24 Hours
22389,Ampol Foodary Kogarah,AMPOL,29-President Ave,,Kogarah,NSW,2217,-33.9651047,151.1411291,,False,12.82,11:0,Today: Mon: 0600-2200 | Tomorrow: Tue: 0600-2200 | Wednesday: Wed: 0600-2200 | Thursday: Thu: 0600-2200 | Friday: Fri: 0600-2200 | Saturday: Sat: 0600-2200 | Sunday: Sun: 0600-2200 | Monday: Mon: 0600-2200
1766,Kogarah,SUPERMARKETS,"Kogarah Town Centre, Railway Parade",,Kogarah,NSW,2217,-33.96203598,151.132778,(02) 8565 9272,False,12.93,11:0,Today: Mon: 0700-2200 | Tomorrow: Tue: 0700-2200 | Wednesday: Wed: 0700-2200 | Thursday: Thu: 0700-2200 | Friday: Fri: 0700-2200 | Saturday: Sat: 0700-2200 | Sunday: Sun: 0700-2200 | Monday: Mon: 0700-2200
22683,Ampol Foodary Brookvale,AMPOL,740-742-Pittwater Rd,,Brookvale,NSW,2100,-33.7614677,151.274532,,True,12.96,11:0,Today: Mon: 24 Hours | Tomorrow: Tue: 24 Hours | Wednesday: Wed: 24 Hours | Thursday: Thu: 24 Hours | Friday: Fri: 24 Hours | Saturday: Sat: 24 Hours | Sunday: Sun: 24 Hours | Monday: Mon: 24 Hours
1341,West Ryde,SUPERMARKETS,14 Anthony Road,,West Ryde,NSW,2114,-33.8062762,151.088052,(02) 9308 7346,False,13.02,11:0,Today: Mon: 0700-2300 | Tomorrow: Tue: 0700-2300 | Wednesday: Wed: 0700-2300 | Thursday: Thu: 0700-2300 | Friday: Fri: 0700-2300 | Saturday: Sat: 0700-2300 | Sunday: Sun: 0700-2300 | Monday: Mon: 0700-2300
91841,Brookvale,EG,756 Pittwater Rd ( Cnr West St),,Brookvale,NSW,2100,-33.7617,151.2763,02 9054 0497,True,13.02,11:0,Today: Mon: 24 Hours | Tomorrow: Tue: 24 Hours | Wednesday: Wed: 24 Hours | Thursday: Thu: 24 Hours | Friday: Fri: 24 Hours | Saturday: Sat: 24 Hours | Sunday: Sun: 24 Hours | Monday: Mon: 24 Hours
22900,Ampol Foodary Homebush,AMPOL,334-336-Parramatta Rd,,Homebush,NSW,2140,-33.8581667,151.0681389,,False,13.12,11:0,Today: Mon: 0500-2359 | Tomorrow: Tue: 0500-2359 | Wednesday: Wed: 0500-2359 | Thursday: Thu: 0500-2359 | Friday: Fri: 0500-2359 | Saturday: Sat: 0500-2359 | Sunday: Sun: 0500-2359 | Monday: Mon: 0500-2359
1864,Kingsgrove,SUPERMARKETS,Mashman Ave,,Kingsgrove,NSW,2208,-33.9412438,151.1004524,(02) 8565 9313,False,13.19,11:0,Today: Mon: 0700-2200 | Tomorrow: Tue: 0700-2200 | Wednesday: Wed: 0700-2200 | Thursday: Thu: 0700-2200 | Friday: Fri: 0700-2200 | Saturday: Sat: 0700-2200 | Sunday: Sun: 0700-2200 | Monday: Mon: 0700-2200
28973,Ampol Foodary Beacon Hill,AMPOL,176-Warringah Rd,,Beacon Hill,NSW,2100,-33.753823,151.260266,,True,13.21,11:0,Today: Mon: 24 Hours | Tomorrow: Tue: 24 Hours | Wednesday: Wed: 24 Hours | Thursday: Thu: 24 Hours | Friday: Fri: 24 Hours | Saturday: Sat: 24 Hours | Sunday: Sun: 24 Hours | Monday: Mon: 24 Hours
1160,Gordon,SUPERMARKETS,802-808 Pacific Highway,,Gordon,NSW,2072,-33.7554444,151.1520064,(02) 9308 7376,False,13.31,11:0,Today: Mon: 0700-2200 | Tomorrow: Tue: 0700-2200 | Wednesday: Wed: 0700-2200 | Thursday: Thu: 0700-2200 | Friday: Fri: 0700-2200 | Saturday: Sat: 0700-2200 | Sunday: Sun: 0700-2200 | Monday: Mon: 0700-2200
1761,Marsfield,SUPERMARKETS,Cnr Epping And Balaclava Roads,,Marsfield,NSW,2122,-33.77836537,151.1077526,(02) 9308 7352,False,13.49,11:0,Today: Mon: 0700-0000 | Tomorrow: Tue: 0700-0000 | Wednesday: Wed: 0700-0000 | Thursday: Thu: 0700-0000 | Friday: Fri: 0700-0000 | Saturday: Sat: 0700-0000 | Sunday: Sun: 0700-0000 | Monday: Mon: 0700-0000
91511,Marsfield,EG,Cnr Epping & Balaclava Road,,Marsfield,NSW,2122,-33.7784,151.1074,02 8870 7657,False,13.51,11:0,Today: Mon: 0600-0000 | Tomorrow: Tue: 0600-0000 | Wednesday: Wed: 0600-0000 | Thursday: Thu: 0600-0000 | Friday: Fri: 0600-0000 | Saturday: Sat: 0600-0000 | Sunday: Sun: 0700-0000 | Monday: Mon: 0600-0000
22276,Ampol Foodary Lakemba,AMPOL,516-Punchbowl Rd Cnr Wangee Rd,,Lakemba,NSW,2195,-33.911492,151.0732469,,True,13.64,11:0,Today: Mon: 24 Hours | Tomorrow: Tue: 24 Hours | Wednesday: Wed: 24 Hours | Thursday: Thu: 24 Hours | Friday: Fri: 24 Hours | Saturday: Sat: 24 Hours | Sunday: Sun: 24 Hours | Monday: Mon: 24 Hours
1932,Lakemba,SUPERMARKETS,2 - 26 Haldon Street,,Lakemba,NSW,2195,-33.91828906,151.0756903,(02) 8565 9374,False,13.74,11:0,Today: Mon: 0700-2300 | Tomorrow: Tue: 0700-2300 | Wednesday: Wed: 0700-2300 | Thursday: Thu: 0700-2300 | Friday: Fri: 0700-2300 | Saturday: Sat: 0700-2300 | Sunday: Sun: 0700-2300 | Monday: Mon: 0700-2300
8485,Carter St Metro,SUPERMARKETS,"11A / 13 Carter St, Lidcombe, NSW, 2141",,Lidcombe,NSW,2141,-33.85141,151.06165,(02) 9305 1007,False,13.78,11:0,Today: Mon: 0700-2300 | Tomorrow: Tue: 0700-2300 | Wednesday: Wed: 0700-2300 | Thursday: Thu: 0700-2300 | Friday: Fri: 0700-2300 | Saturday: Sat: 0700-2300 | Sunday: Sun: 0700-2300 | Monday: Mon: 0700-2300
91789,Glenrose,EG,60 Glen Street,,Glenrose,NSW,2085,-33.7401,151.2091,02 8073 3993,False,13.89,11:0,Today: Mon: 0700-2200 | Tomorrow: Tue: 0700-2200 | Wednesday: Wed: 0700-2200 | Thursday: Thu: 0700-2200 | Friday: Fri: 0700-2200 | Saturday: Sat: 0700-2100 | Sunday: Sun: 0700-2100 | Monday: Mon: 0700-2200
91996,Greenacre,EG,51 Roberts Road (Cnr Amarina St),,Greenacre,NSW,2190,-33.9003,151.0655,02 8870 7638,True,13.9,11:0,Today: Mon: 24 Hours | Tomorrow: Tue: 24 Hours | Wednesday: Wed: 24 Hours | Thursday: Thu: 24 Hours | Friday: Fri: 24 Hours | Saturday: Sat: 24 Hours | Sunday: Sun: 24 Hours | Monday: Mon: 24 Hours
1262,Glenrose,SUPERMARKETS,56 - 58 Glen Street,,Belrose,NSW,2085,-33.739915,151.209837,(02) 8565 9344,False,13.91,11:0,Today: Mon: 0700-2200 | Tomorrow: Tue: 0700-2200 | Wednesday: Wed: 0700-2200 | Thursday: Thu: 0700-2200 | Friday: Fri: 0700-2200 | Saturday: Sat: 0700-2200 | Sunday: Sun: 0700-2200 | Monday: Mon: 0700-2200
1104,Chullora,SUPERMARKETS,355 Waterloo Road,,Chullora,NSW,2190,-33.89241,151.06099,(02) 9308 7397,False,14.09,11:0,Today: Mon: 0700-2200 | Tomorrow: Tue: 0700-2200 | Wednesday: Wed: 0700-2200 | Thursday: Thu: 0700-2200 | Friday: Fri: 0700-2200 | Saturday: Sat: 0700-2200 | Sunday: Sun: 0700-2200 | Monday: Mon: 0700-2200
22794,Ampol Foodary Greenacre,AMPOL,87-91-Roberts Rd Cnr Moondo St,,Greenacre,NSW,2190,-33.9047219,151.0645866,,True,14.13,11:0,Today: Mon: 24 Hours | Tomorrow: Tue: 24 Hours | Wednesday: Wed: 24 Hours | Thursday: Thu: 24 Hours | Friday: Fri: 24 Hours | Saturday: Sat: 24 Hours | Sunday: Sun: 24 Hours | Monday: Mon: 24 Hours
1472,Dee Why,SUPERMARKETS,37 Howard Avenue,,Dee Why,NSW,2099,-33.75317823,151.2878416,(02) 8565 9384,False,14.36,11:0,Today: Mon: 0700-2200 | Tomorrow: Tue: 0700-2200 | Wednesday: Wed: 0700-2200 | Thursday: Thu: 0700-2200 | Friday: Fri: 0700-2200 | Saturday: Sat: 0700-2200 | Sunday: Sun: 0700-2200 | Monday: Mon: 0700-2200
1200,Eastwood,SUPERMARKETS,"Eastwood Centre, 160 Rowe Street",,Eastwood,NSW,2122,-33.79234014,151.08135,(02) 9308 7340,False,14.37,11:0,Today: Mon: 0800-2100 | Tomorrow: Tue: 0800-2100 | Wednesday: Wed: 0800-2100 | Thursday: Thu: 0800-2100 | Friday: Fri: 0800-2100 | Saturday: Sat: 0800-2000 | Sunday: Sun: 0800-2000 | Monday: Mon: 0800-2100
91540,Chullora,EG,97 Hume Highway,,Chullora,NSW,2190,-33.8919,151.0575,02 8870 7612,True,14.39,11:0,Today: Mon: 24 Hours | Tomorrow: Tue: 24 Hours | Wednesday: Wed: 24 Hours | Thursday: Thu: 24 Hours | Friday: Fri: 24 Hours | Saturday: Sat: 24 Hours | Sunday: Sun: 24 Hours | Monday: Mon: 24 Hours
28783,Ampol Foodary Kingsgrove,AMPOL,351-357-Stoney Creek Rd,,Kingsgrove,NSW,2208,-33.951322,151.092687,,True,14.47,11:0,Today: Mon: 24 Hours | Tomorrow: Tue: 24 Hours | Wednesday: Wed: 24 Hours | Thursday: Thu: 24 Hours | Friday: Fri: 24 Hours | Saturday: Sat: 24 Hours | Sunday: Sun: 24 Hours | Monday: Mon: 24 Hours
22198,Ampol Foodary Belrose,AMPOL,153-Forest Way,,Belrose,NSW,2085,-33.7347489,151.2211111,,False,14.52,11:0,Today: Mon: 0600-2100 | Tomorrow: Tue: 0600-2100 | Wednesday: Wed: 0600-2100 | Thursday: Thu: 0600-2100 | Friday: Fri: 0600-2100 | Saturday: Sat: 0600-2100 | Sunday: Sun: 0600-2100 | Monday: Mon: 0600-2100
1377,Hurstville East,SUPERMARKETS,89 Durham St,,Hurstville East,NSW,2220,-33.96744145,151.1109817,(02) 9305 1004,False,14.6,11:0,Today: Mon: 0700-2200 | Tomorrow: Tue: 0700-2200 | Wednesday: Wed: 0700-2200 | Thursday: Thu: 0700-2200 | Friday: Fri: 0700-2200 | Saturday: Sat: 0700-2200 | Sunday: Sun: 0700-2200 | Monday: Mon: 0700-2200
1315,Newington,SUPERMARKETS,1 Avenue Of Americas,,Newington,NSW,2127,-33.8341411,151.0556385,(02) 8565 9221,False,14.66,11:0,Today: Mon: 0700-2200 | Tomorrow: Tue: 0700-2200 | Wednesday: Wed: 0700-2200 | Thursday: Thu: 0700-2200 | Friday: Fri: 0700-2200 | Saturday: Sat: 0700-2200 | Sunday: Sun: 0700-2200 | Monday: Mon: 0700-2200
91829,Newington,EG,1 Avenue of the Americas,,Newington,NSW,2127,-33.8338,151.0557,02 6957 2672,False,14.67,11:0,Today: Mon: 0530-2200 | Tomorrow: Tue: 0530-2200 | Wednesday: Wed: 0530-2200 | Thursday: Thu: 0530-2200 | Friday: Fri: 0530-2200 | Saturday: Sat: 0600-2100 | Sunday: Sun: 0700-2100 | Monday: Mon: 0530-2200
1284,Hurstville,SUPERMARKETS,Cnr Park & Cross Streets,,Hurstville,NSW,2220,-33.9655,151.10591,(02) 8565 9341,False,14.74,11:0,Today: Mon: 0700-2200 | Tomorrow: Tue: 0700-2200 | Wednesday: Wed: 0700-2200 | Thursday: Thu: 0700-2200 | Friday: Fri: 0700-2200 | Saturday: Sat: 0700-2200 | Sunday: Sun: 0700-2200 | Monday: Mon: 0700-2200
1598,Lidcombe,SUPERMARKETS,92 Parramatta Road,,Lidcombe,NSW,2144,-33.84857934,151.0488485,(02) 8565 9330,False,14.99,11:0,Today: Mon: 0700-2200 | Tomorrow: Tue: 0700-2200 | Wednesday: Wed: 0700-2200 | Thursday: Thu: 0700-2200 | Friday: Fri: 0700-2200 | Saturday: Sat: 0700-2200 | Sunday: Sun: 0700-2200 | Monday: Mon: 0700-2200
1409,Roselands,SUPERMARKETS,34 Roselands Drive,,Roselands,NSW,2196,-33.9355139,151.0685119,(02) 8565 9393,False,15.23,11:0,Today: Mon: 0700-2200 | Tomorrow: Tue: 0700-2200 | Wednesday: Wed: 0700-2200 | Thursday: Thu: 0700-2200 | Friday: Fri: 0700-2200 | Saturday: Sat: 0700-2200 | Sunday: Sun: 0700-2200 | Monday: Mon: 0700-2200
22424,Ampol Foodary Dee Why,AMPOL,793-797-Pittwater Rd,,Dee Why,NSW,2099,-33.745629,151.292113,,False,15.29,11:0,Today: Mon: 0500-2359 | Tomorrow: Tue: 0500-2359 | Wednesday: Wed: 0500-2359 | Thursday: Thu: 0500-2359 | Friday: Fri: 0500-2359 | Saturday: Sat: 0500-2359 | Sunday: Sun: 0500-2359 | Monday: Mon: 0500-2359
91803,Silverwater,EG,154 Silverwater Rd,,Silverwater,NSW,2128,-33.8317,151.0485,02 8073 3940,True,15.37,11:0,Today: Mon: 24 Hours | Tomorrow: Tue: 24 Hours | Wednesday: Wed: 24 Hours | Thursday: Thu: 24 Hours | Friday: Fri: 24 Hours | Saturday: Sat: 24 Hours | Sunday: Sun: 24 Hours | Monday: Mon: 24 Hours
1366,Ermington,SUPERMARKETS,30 Betty Cuthbert Avenue,,Ermington,NSW,2115,-33.81461,151.054459,(02) 8633 2922,False,15.42,11:0,Today: Mon: 0700-2300 | Tomorrow: Tue: 0700-2300 | Wednesday: Wed: 0700-2300 | Thursday: Thu: 0700-2300 | Friday: Fri: 0700-2300 | Saturday: Sat: 0700-2200 | Sunday: Sun: 0700-2200 | Monday: Mon: 0700-2300
22246,Ampol Foodary Ermington,AMPOL,560-562-Victoria Rd Cnr Lawson St,,Ermington,NSW,2115,-33.8137,151.0548,,True,15.43,11:0,Today: Mon: 24 Hours | Tomorrow: Tue: 24 Hours | Wednesday: Wed: 24 Hours | Thursday: Thu: 24 Hours | Friday: Fri: 24 Hours | Saturday: Sat: 24 Hours | Sunday: Sun: 24 Hours | Monday: Mon: 24 Hours
1004,Punchbowl,SUPERMARKETS,1-9 the Boulevard,,Punchbowl,NSW,2196,-33.9262209,151.0582817,(02) 8565 9306,False,15.57,11:0,Today: Mon: 0700-2200 | Tomorrow: Tue: 0700-2200 | Wednesday: Wed: 0700-2200 | Thursday: Thu: 0700-2200 | Friday: Fri: 0700-2200 | Saturday: Sat: 0700-2200 | Sunday: Sun: 0700-2200 | Monday: Mon: 0700-2200
22895,Ampol Foodary St Ives,AMPOL,164-Mona Vale Rd,,St Ives,NSW,2075,-33.730783,151.157051,,True,15.71,11:0,Today: Mon: 24 Hours | Tomorrow: Tue: 24 Hours | Wednesday: Wed: 24 Hours | Thursday: Thu: 24 Hours | Friday: Fri: 24 Hours | Saturday: Sat: 24 Hours | Sunday: Sun: 24 Hours | Monday: Mon: 24 Hours
28796,Ampol Foodary Punchbowl,AMPOL,1285-1289-Canterbury Rd Cnr Duncan St,,Punchbowl,NSW,2196,-33.9314597,151.0596341,,True,15.72,11:0,Today: Mon: 24 Hours | Tomorrow: Tue: 24 Hours | Wednesday: Wed: 24 Hours | Thursday: Thu: 24 Hours | Friday: Fri: 24 Hours | Saturday: Sat: 24 Hours | Sunday: Sun: 24 Hours | Monday: Mon: 24 Hours
8165,Auburn CFC,SUPERMARKETS,11 Percy Street,,Auburn,NSW,2144,-33.8499865,151.0406471,0293051076,False,15.73,11:0,Today: Mon: 0800-2100 | Tomorrow: Tue: 0800-2100 | Wednesday: Wed: 0800-2100 | Thursday: Thu: 0800-2100 | Friday: Fri: 0800-2100 | Saturday: Sat: 0800-2100 | Sunday: Sun: 0800-2100 | Monday: Mon: 0800-2100
1099,St Ives,SUPERMARKETS,"St Ives Shopping Village, 166 Mona Vale Road",,St Ives,NSW,2075,-33.729832,151.15922,(02) 9308 7361,False,15.75,11:0,Today: Mon: 0700-2200 | Tomorrow: Tue: 0700-2200 | Wednesday: Wed: 0700-2200 | Thursday: Thu: 0700-2200 | Friday: Fri: 0700-2200 | Saturday: Sat: 0700-2200 | Sunday: Sun: 0700-2200 | Monday: Mon: 0700-2200
91846,Turramurra,EG,1233 Pacific Highway,,Turramurra,NSW,2074,-33.7332,151.1313,02 8073 3984,True,16.36,11:0,Today: Mon: 24 Hours | Tomorrow: Tue: 24 Hours | Wednesday: Wed: 24 Hours | Thursday: Thu: 24 Hours | Friday: Fri: 24 Hours | Saturday: Sat: 24 Hours | Sunday: Sun: 24 Hours | Monday: Mon: 24 Hours
1251,Berala,SUPERMARKETS,156 Woodburn Road,,Berala,NSW,2141,-33.87147596,151.0322174,(02) 8565 9286,False,16.43,11:0,Today: Mon: 0700-2200 | Tomorrow: Tue: 0700-2200 | Wednesday: Wed: 0700-2200 | Thursday: Thu: 0700-2200 | Friday: Fri: 0700-2200 | Saturday: Sat: 0700-2200 | Sunday: Sun: 0700-2200 | Monday: Mon: 0700-2200
91500,Blakehurst,EG,390 Princes Highway,,Blakehurst,NSW,2221,-33.9902,151.1136,02 8870 7646,True,16.52,11:0,Today: Mon: 24 Hours | Tomorrow: Tue: 24 Hours | Wednesday: Wed: 24 Hours | Thursday: Thu: 24 Hours | Friday: Fri: 24 Hours | Saturday: Sat: 24 Hours | Sunday: Sun: 24 Hours | Monday: Mon: 24 Hours
1400,Auburn,SUPERMARKETS,Cnr Queen And Park Road,,Auburn,NSW,2144,-33.85015372,151.0318367,(02) 8565 9230,False,16.53,11:0,Today: Mon: 0700-2300 | Tomorrow: Tue: 0700-2300 | Wednesday: Wed: 0700-2300 | Thursday: Thu: 0700-2300 | Friday: Fri: 0700-2300 | Saturday: Sat: 0700-2300 | Sunday: Sun: 0700-2300 | Monday: Mon: 0700-2300
1131,Bankstown,SUPERMARKETS,"Centro Shopping Centre, Lady Cutler Avenue",,Bankstown,NSW,2200,-33.915389,151.04086,(02) 8709 4309,False,16.59,11:0,Today: Mon: 0700-2300 | Tomorrow: Tue: 0700-2300 | Wednesday: Wed: 0700-2300 | Thursday: Thu: 0700-2300 | Friday: Fri: 0700-2300 | Saturday: Sat: 0700-2300 | Sunday: Sun: 0700-2300 | Monday: Mon: 0700-2300
91980,Peakhurst,EG,742 Forest Road,,Peakhurst,NSW,2210,-33.9575,151.0681,02 6045 9849,False,16.65,11:0,Today: Mon: 0500-2300 | Tomorrow: Tue: 0500-2300 | Wednesday: Wed: 0500-2300 | Thursday: Thu: 0500-2300 | Friday: Fri: 0500-2300 | Saturday: Sat: 0500-2300 | Sunday: Sun: 0500-2300 | Monday: Mon: 0500-2300
22303,Ampol Foodary St Ives North,AMPOL,363-Mona Vale Rd,,St Ives North,NSW,2075,-33.716874,151.17361,,False,16.81,11:0,Today: Mon: 0600-2200 | Tomorrow: Tue: 0600-2200 | Wednesday: Wed: 0600-2200 | Thursday: Thu: 0600-2200 | Friday: Fri: 0600-2200 | Saturday: Sat: 0600-2200 | Sunday: Sun: 0600-2200 | Monday: Mon: 0600-2200
28781,Ampol Foodary Rydalmere,AMPOL,309-Victoria Rd,,Rydalmere,NSW,2116,-33.8119,151.0372,,False,17.02,11:0,Today: Mon: 0500-2200 | Tomorrow: Tue: 0500-2200 | Wednesday: Wed: 0500-2200 | Thursday: Thu: 0500-2200 | Friday: Fri: 0500-2200 | Saturday: Sat: 0500-2200 | Sunday: Sun: 0500-2200 | Monday: Mon: 0500-2200
91215,Bankstown,EG,1618 Canterbury Road,,Bankstown,NSW,2196,-33.9339,151.0391,02 9054 0499,True,17.54,11:0,Today: Mon: 24 Hours | Tomorrow: Tue: 24 Hours | Wednesday: Wed: 24 Hours | Thursday: Thu: 24 Hours | Friday: Fri: 24 Hours | Saturday: Sat: 24 Hours | Sunday: Sun: 24 Hours | Monday: Mon: 24 Hours
1122,Carlingford,SUPERMARKETS,801-809 Pennant Hills Road,,Carlingford,NSW,2118,-33.77650822,151.0526816,(02) 8633 2910,False,17.55,11:0,Today: Mon: 0700-2200 | Tomorrow: Tue: 0700-2200 | Wednesday: Wed: 0700-2200 | Thursday: Thu: 0700-2200 | Friday: Fri: 0700-2200 | Saturday: Sat: 0700-2200 | Sunday: Sun: 0700-2200 | Monday: Mon: 0700-2200
1097,Riverwood,SUPERMARKETS,247 Belmore Road,,Riverwood,NSW,2210,-33.952812,151.051455,(02) 8522 7709,False,17.59,11:0,Today: Mon: 0700-2200 | Tomorrow: Tue: 0700-2200 | Wednesday: Wed: 0700-2200 | Thursday: Thu: 0700-2200 | Friday: Fri: 0700-2200 | Saturday: Sat: 0700-2200 | Sunday: Sun: 0700-2200 | Monday: Mon: 0700-2200
1934,Mortdale,SUPERMARKETS,84D Roberts Avenue,,Mortdale,NSW,2223,-33.968547,151.064731,(02) 8565 9309,False,17.67,11:0,Today: Mon: 0700-2200 | Tomorrow: Tue: 0700-2200 | Wednesday: Wed: 0700-2200 | Thursday: Thu: 0700-2200 | Friday: Fri: 0700-2200 | Saturday: Sat: 0700-2200 | Sunday: Sun: 0700-2200 | Monday: Mon: 0700-2200
22372,U-Go Carlingford Court,AMPOL,797-Pennant Hills Rd,,Carlingford,NSW,2118,-33.775767,151.051678,,True,17.67,11:0,Today: Mon: 24 Hours | Tomorrow: Tue: 24 Hours | Wednesday: Wed: 24 Hours | Thursday: Thu: 24 Hours | Friday: Fri: 24 Hours | Saturday: Sat: 24 Hours | Sunday: Sun: 24 Hours | Monday: Mon: 24 Hours
1012,North Turramurra Metro,SUPERMARKETS,290 Bobbin Road,,North Turramurra,NSW,2074,-33.71277,151.14695,(02) 9450 6741,False,17.9,11:0,Today: Mon: 0700-2200 | Tomorrow: Tue: 0700-2200 | Wednesday: Wed: 0700-2200 | Thursday: Thu: 0700-2200 | Friday: Fri: 0700-2200 | Saturday: Sat: 0700-2200 | Sunday: Sun: 0700-2200 | Monday: Mon: 0700-2200
1123,Rosehill,SUPERMARKETS,28-30 Oak Street,,Rosehill,NSW,2142,-33.819771,151.020282,(02) 8633 2913,False,18.23,11:0,Today: Mon: 0700-2200 | Tomorrow: Tue: 0700-2200 | Wednesday: Wed: 0700-2200 | Thursday: Thu: 0700-2200 | Friday: Fri: 0700-2200 | Saturday: Sat: 0700-2200 | Sunday: Sun: 0700-2200 | Monday: Mon: 0700-2200
91021,Granville,EG,158 Clyde Street (Cnr Redfern St),,Granville,NSW,2142,-33.8462,151.0125,02 9054 0488,True,18.36,11:0,Today: Mon: 24 Hours | Tomorrow: Tue: 24 Hours | Wednesday: Wed: 24 Hours | Thursday: Thu: 24 Hours | Friday: Fri: 24 Hours | Saturday: Sat: 24 Hours | Sunday: Sun: 24 Hours | Monday: Mon: 24 Hours
22887,Ampol Foodary Padstow,AMPOL,115-Fairford Rd,,Padstow,NSW,2211,-33.9433313,151.0345043,,True,18.39,11:0,Today: Mon: 24 Hours | Tomorrow: Tue: 24 Hours | Wednesday: Wed: 24 Hours | Thursday: Thu: 24 Hours | Friday: Fri: 24 Hours | Saturday: Sat: 24 Hours | Sunday: Sun: 24 Hours | Monday: Mon: 24 Hours
1611,Cowper St Metro,SUPERMARKETS,35 East Street,,Granville,NSW,2142,-33.832062,151.012863,(02) 8633 2967,False,18.57,11:0,Today: Mon: 0700-2200 | Tomorrow: Tue: 0700-2200 | Wednesday: Wed: 0700-2200 | Thursday: Thu: 0700-2200 | Friday: Fri: 0700-2200 | Saturday: Sat: 0700-2200 | Sunday: Sun: 0700-2200 | Monday: Mon: 0700-2200
1364,Beecroft,SUPERMARKETS,Corner of Hannah Street and Beecroft Road,,Beecroft,NSW,2119,-33.7492031,151.0648369,(02) 9450 6727,False,18.59,11:0,Today: Mon: 0700-2200 | Tomorrow: Tue: 0700-2200 | Wednesday: Wed: 0700-2200 | Thursday: Thu: 0700-2200 | Friday: Fri: 0700-2200 | Saturday: Sat: 0700-2200 | Sunday: Sun: 0700-2200 | Monday: Mon: 0700-2200
1759,Granville,SUPERMARKETS,6 Louis Street,,Granville,NSW,2142,-33.84157873,151.0092814,(02) 8633 2937,False,18.72,11:0,Today: Mon: 0700-0000 | Tomorrow: Tue: 0700-0000 | Wednesday: Wed: 0700-0000 | Thursday: Thu: 0700-0000 | Friday: Fri: 0700-0000 | Saturday: Sat: 0700-0000 | Sunday: Sun: 0700-0000 | Monday: Mon: 0700-0000
22686,Ampol Foodary Granville,AMPOL,144-Parramatta Rd Cnr Bold St,,Granville,NSW,2142,-33.8303724,151.0108811,,False,18.79,11:0,Today: Mon: 0500-2359 | Tomorrow: Tue: 0500-2359 | Wednesday: Wed: 0500-2359 | Thursday: Thu: 0500-2359 | Friday: Fri: 0500-2359 | Saturday: Sat: 0500-2359 | Sunday: Sun: 0500-2359 | Monday: Mon: 0500-2359
1056,Narrabeen,SUPERMARKETS,12 Lagoon Street,,Narrabeen,NSW,2101,-33.712194,151.298148,(02) 9450 6706,False,18.84,11:0,Today: Mon: 0700-2200 | Tomorrow: Tue: 0700-2200 | Wednesday: Wed: 0700-2200 | Thursday: Thu: 0700-2200 | Friday: Fri: 0700-2200 | Saturday: Sat: 0700-2200 | Sunday: Sun: 0700-2200 | Monday: Mon: 0700-2200
22756,Ampol Foodary Carlingford,AMPOL,131-Pennant Hills Rd Cnr Bettington Rd,,Carlingford,NSW,2118,-33.787644,151.027938,,False,18.89,11:0,Today: Mon: 0600-2100 | Tomorrow: Tue: 0600-2100 | Wednesday: Wed: 0600-2100 | Thursday: Thu: 0600-2100 | Friday: Fri: 0600-2100 | Saturday: Sat: 0600-2000 | Sunday: Sun: 0600-2000 | Monday: Mon: 0600-2100
1615,Sylvania,SUPERMARKETS,124 Princes Highway,,Sylvania,NSW,2224,-34.0106583,151.1033895,(02) 8522 7721,False,18.95,11:0,Today: Mon: 0700-2200 | Tomorrow: Tue: 0700-2200 | Wednesday: Wed: 0700-2200 | Thursday: Thu: 0700-2200 | Friday: Fri: 0700-2200 | Saturday: Sat: 0700-2200 | Sunday: Sun: 0700-2200 | Monday: Mon: 0700-2200
1249,Thornleigh,SUPERMARKETS,261 Pennant Hills Road,,Thornleigh,NSW,2120,-33.731536,151.082005,(02) 9450 6709,False,18.98,11:0,Today: Mon: 0700-2200 | Tomorrow: Tue: 0700-2200 | Wednesday: Wed: 0700-2200 | Thursday: Thu: 0700-2200 | Friday: Fri: 0700-2200 | Saturday: Sat: 0700-2200 | Sunday: Sun: 0700-2200 | Monday: Mon: 0700-2200
1319,Padstow (Metro),SUPERMARKETS,5 Faraday Road,,Padstow,NSW,2211,-33.953857,151.034294,(02) 8709 4318,False,18.99,11:0,Today: Mon: 0700-2200 | Tomorrow: Tue: 0700-2200 | Wednesday: Wed: 0700-2200 | Thursday: Thu: 0700-2200 | Friday: Fri: 0700-2200 | Saturday: Sat: 0700-2200 | Sunday: Sun: 0700-2200 | Monday: Mon: 0700-2200
22720,U-Go Taren Point,AMPOL,114-Taren Point Rd,,Taren Point,NSW,2229,-34.020771,151.121679,,True,19.14,11:0,Today: Mon: 24 Hours | Tomorrow: Tue: 24 Hours | Wednesday: Wed: 24 Hours | Thursday: Thu: 24 Hours | Friday: Fri: 24 Hours | Saturday: Sat: 24 Hours | Sunday: Sun: 24 Hours | Monday: Mon: 24 Hours
8963,George St Parramatta (Metro),SUPERMARKETS,180 George St,,Parramatta,NSW,2150,-33.81498533,151.0099986,(02) 8633 2974,False,19.29,11:0,Today: Mon: 0700-2200 | Tomorrow: Tue: 0700-2200 | Wednesday: Wed: 0700-2200 | Thursday: Thu: 0700-2200 | Friday: Fri: 0700-2200 | Saturday: Sat: 0700-2200 | Sunday: Sun: 0700-2200 | Monday: Mon: 0700-2200
22793,Ampol Foodary Thornleigh,AMPOL,200-202-Pennant Hills Rd,,Thornleigh,NSW,2120,-33.7266,151.0834,,True,19.33,11:0,Today: Mon: 24 Hours | Tomorrow: Tue: 24 Hours | Wednesday: Wed: 24 Hours | Thursday: Thu: 24 Hours | Friday: Fri: 24 Hours | Saturday: Sat: 24 Hours | Sunday: Sun: 24 Hours | Monday: Mon: 24 Hours
1008,Chester Hill,SUPERMARKETS,"Chester Square Shopping Centre, 1-13 Leicester Street",,Chester Hill,NSW,2162,-33.882222,151.000428,(02) 8709 4303,False,19.44,11:0,Today: Mon: 0700-2200 | Tomorrow: Tue: 0700-2200 | Wednesday: Wed: 0700-2200 | Thursday: Thu: 0700-2200 | Friday: Fri: 0700-2200 | Saturday: Sat: 0700-2200 | Sunday: Sun: 0700-2200 | Monday: Mon: 0700-2200
22120,Ampol Foodary Narrabeen,AMPOL,1509-1511-Pittwater Rd,,Narrabeen,NSW,2101,-33.704667,151.2970501,,False,19.56,11:0,Today: Mon: 0600-2200 | Tomorrow: Tue: 0600-2200 | Wednesday: Wed: 0600-2200 | Thursday: Thu: 0600-2200 | Friday: Fri: 0600-2200 | Saturday: Sat: 0600-2200 | Sunday: Sun: 0700-2200 | Monday: Mon: 0600-2200
22680,Ampol Foodary Merrylands,AMPOL,150-Woodville Rd Cnr Merrylands Rd,,Merrylands,NSW,2160,-33.8382444,150.9997261,,False,19.64,11:0,Today: Mon: 0500-2359 | Tomorrow: Tue: 0500-2359 | Wednesday: Wed: 0500-2359 | Thursday: Thu: 0500-2359 | Friday: Fri: 0500-2359 | Saturday: Sat: 0500-2359 | Sunday: Sun: 0500-2359 | Monday: Mon: 0500-2359
1665,Parramatta Station (Metro),SUPERMARKETS,"Shop 1156, L1 Westfield Parramatta",,Parramatta,NSW,2150,-33.81746903,151.0045616,(02) 8633 2950,False,19.7,11:0,Today: Mon: 0600-2200 | Tomorrow: Tue: 0600-2200 | Wednesday: Wed: 0600-2200 | Thursday: Thu: 0600-2200 | Friday: Fri: 0600-2200 | Saturday: Sat: 0700-2000 | Sunday: Sun: 0700-2000 | Monday: Mon: 0600-2200
22810,Ampol Foodary Waitara,AMPOL,59-61-Pacific Hwy Cnr Unwin Rd,,Waitara,NSW,2077,-33.7105,151.1025,,False,19.85,11:0,Today: Mon: 0600-2300 | Tomorrow: Tue: 0600-2300 | Wednesday: Wed: 0600-2300 | Thursday: Thu: 0600-2300 | Friday: Fri: 0600-2300 | Saturday: Sat: 0600-2300 | Sunday: Sun: 0600-2300 | Monday: Mon: 0600-2300
91697,Bass Hill,EG,862 Hume Highway,,Bass Hill,NSW,2197,-33.9011,150.9992,02 8073 3963,True,19.87,11:0,Today: Mon: 24 Hours | Tomorrow: Tue: 24 Hours | Wednesday: Wed: 24 Hours | Thursday: Thu: 24 Hours | Friday: Fri: 24 Hours | Saturday: Sat: 24 Hours | Sunday: Sun: 24 Hours | Monday: Mon: 24 Hours
1106,Parramatta,SUPERMARKETS,171 Church Street,,Parramatta,NSW,2150,-33.8176689,151.0023984,(02) 8633 2907,False,19.88,11:0,Today: Mon: 0700-2300 | Tomorrow: Tue: 0700-2300 | Wednesday: Wed: 0700-2300 | Thursday: Thu: 0700-2300 | Friday: Fri: 0700-2300 | Saturday: Sat: 0700-2300 | Sunday: Sun: 0700-2300 | Monday: Mon: 0700-2300
91687,North Narrabeen,EG,1412-1414 Pittwater Road,,North Narrabeen,NSW,2101,-33.7009,151.2998,02 8073 3961,False,20.05,11:0,Today: Mon: 0600-2300 | Tomorrow: Tue: 0600-2300 | Wednesday: Wed: 0600-2300 | Thursday: Thu: 0600-2300 | Friday: Fri: 0600-2300 | Saturday: Sat: 0600-2300 | Sunday: Sun: 0600-2200 | Monday: Mon: 0600-2300
91496,Woolooware,EG,449 Captain Cook Drive,,Woolooware,NSW,2230,-34.0387,151.1437,02 5104 2451,True,20.26,11:0,Today: Mon: 24 Hours | Tomorrow: Tue: 24 Hours | Wednesday: Wed: 24 Hours | Thursday: Thu: 24 Hours | Friday: Fri: 24 Hours | Saturday: Sat: 24 Hours | Sunday: Sun: 24 Hours | Monday: Mon: 24 Hours
1600,Woolooware Bay,SUPERMARKETS,455-461 Captain Cook Drive,,Woolooware,NSW,2230,-34.0388144,151.1427003,(02) 8522 7745,False,20.3,11:0,Today: Mon: 0700-2200 | Tomorrow: Tue: 0700-2200 | Wednesday: Wed: 0700-2200 | Thursday: Thu: 0700-2200 | Friday: Fri: 0700-2200 | Saturday: Sat: 0700-2200 | Sunday: Sun: 0700-2200 | Monday: Mon: 0700-2200
8882,Caringbah CFC,SUPERMARKETS,13 Endeavour Road,,Caringbah,NSW,2229,-34.03626,151.13247,(02) 8522 7742,False,20.34,11:0,Today: Mon: 0800-2100 | Tomorrow: Tue: 0800-2100 | Wednesday: Wed: 0800-2100 | Thursday: Thu: 0800-2100 | Friday: Fri: 0800-2100 | Saturday: Sat: 0800-2100 | Sunday: Sun: 0800-2100 | Monday: Mon: 0800-2100
1147,Bass Hill,SUPERMARKETS,"753 Hume Highway, Bass Hill Plaza",,Bass Hill,NSW,2197,-33.899428,150.9934708,(02) 8709 4315,False,20.35,11:0,Today: Mon: 0700-2200 | Tomorrow: Tue: 0700-2200 | Wednesday: Wed: 0700-2200 | Thursday: Thu: 0700-2200 | Friday: Fri: 0700-2200 | Saturday: Sat: 0700-2200 | Sunday: Sun: 0700-2200 | Monday: Mon: 0700-2200
1621,Warriewood,SUPERMARKETS,12 Jacksons Road,,Warriewood,NSW,2102,-33.695714,151.295229,(02) 9450 6718,False,20.41,11:0,Today: Mon: 0700-2100 | Tomorrow: Tue: 0700-2100 | Wednesday: Wed: 0700-2100 | Thursday: Thu: 0700-2100 | Friday: Fri: 0700-2100 | Saturday: Sat: 0700-2100 | Sunday: Sun: 0700-2100 | Monday: Mon: 0700-2100
91571,Chester Hill,EG,35 Woodville Road,,Chester Hill,NSW,2162,-33.8667,150.9887,02 8073 7691,True,20.43,11:0,Today: Mon: 24 Hours | Tomorrow: Tue: 24 Hours | Wednesday: Wed: 24 Hours | Thursday: Thu: 24 Hours | Friday: Fri: 24 Hours | Saturday: Sat: 24 Hours | Sunday: Sun: 24 Hours | Monday: Mon: 24 Hours
91300,Merrylands,EG,185 Pitt Street,,Merrylands,NSW,2160,-33.834,150.9918,02 5632 9533,False,20.44,11:0,Today: Mon: 0600-2300 | Tomorrow: Tue: 0600-2300 | Wednesday: Wed: 0600-2300 | Thursday: Thu: 0600-2300 | Friday: Fri: 0600-2300 | Saturday: Sat: 0600-2200 | Sunday: Sun: 0600-2200 | Monday: Mon: 0600-2300
22302,Ampol Foodary Revesby,AMPOL,181-The River Rd Cnr Uranus Rd,,Revesby,NSW,2212,-33.9556102,151.01726934,,False,20.44,11:0,Today: Mon: 0600-2300 | Tomorrow: Tue: 0600-2300 | Wednesday: Wed: 0600-2300 | Thursday: Thu: 0600-2300 | Friday: Fri: 0600-2300 | Saturday: Sat: 0600-2300 | Sunday: Sun: 0600-2200 | Monday: Mon: 0600-2300
22406,Ampol Foodary Old Guildford,AMPOL,636-644-Woodville Rd Cnr Orchardleigh St,,Old Guildford,NSW,2161,-33.866692,150.987952,,True,20.5,11:0,Today: Mon: 24 Hours | Tomorrow: Tue: 24 Hours | Wednesday: Wed: 24 Hours | Thursday: Thu: 24 Hours | Friday: Fri: 24 Hours | Saturday: Sat: 24 Hours | Sunday: Sun: 24 Hours | Monday: Mon: 24 Hours
1402,Revesby,SUPERMARKETS,60 Marco Avenue,,Revesby,NSW,2212,-33.95138336,151.0131654,(02) 8709 4324,False,20.55,11:0,Today: Mon: 0700-0000 | Tomorrow: Tue: 0700-0000 | Wednesday: Wed: 0700-0000 | Thursday: Thu: 0700-0000 | Friday: Fri: 0700-0000 | Saturday: Sat: 0700-0000 | Sunday: Sun: 0700-2300 | Monday: Mon: 0700-0000
1294,Hornsby,SUPERMARKETS,"Westfield Shopping Centre, 236 Pacific Highway",,Hornsby,NSW,2077,-33.704725,151.099336,(02) 9450 6712,False,20.55,11:0,Today: Mon: 0700-2200 | Tomorrow: Tue: 0700-2200 | Wednesday: Wed: 0700-2200 | Thursday: Thu: 0700-2200 | Friday: Fri: 0700-2200 | Saturday: Sat: 0700-2200 | Sunday: Sun: 0700-2200 | Monday: Mon: 0700-2200
1258,Merrylands,SUPERMARKETS,209 Pitt Street,,Merrylands,NSW,2160,-33.83497262,150.99023,(02) 8633 2944,False,20.57,11:0,Today: Mon: 0700-2300 | Tomorrow: Tue: 0700-2300 | Wednesday: Wed: 0700-2300 | Thursday: Thu: 0700-2300 | Friday: Fri: 0700-2300 | Saturday: Sat: 0700-2300 | Sunday: Sun: 0700-2300 | Monday: Mon: 0700-2300
91825,Miranda,EG,Cnr The Kingsway & Port Hacking Road,,Miranda,NSW,2228,-34.035,151.1126,02 8870 7679,False,20.93,11:0,Today: Mon: 0500-2300 | Tomorrow: Tue: 0500-2300 | Wednesday: Wed: 0500-2300 | Thursday: Thu: 0500-2300 | Friday: Fri: 0500-2300 | Saturday: Sat: 0500-2300 | Sunday: Sun: 0500-2300 | Monday: Mon: 0500-2300
1070,North Parramatta,SUPERMARKETS,1-9 North Rocks Road,,North Parramatta,NSW,2151,-33.7922946,150.999123,(02) 8633 2979,False,21.09,11:0,Today: Mon: 0700-2300 | Tomorrow: Tue: 0700-2300 | Wednesday: Wed: 0700-2300 | Thursday: Thu: 0700-2300 | Friday: Fri: 0700-2300 | Saturday: Sat: 0700-2300 | Sunday: Sun: 0700-2300 | Monday: Mon: 0700-2300
1384,West Pennant Hills (Metro),SUPERMARKETS,"Shop 12, 35 Coonara Avenue",,West Pennant Hills,NSW,2125,-33.744865,151.030533,(02) 8633 2931,False,21.29,11:0,Today: Mon: 0700-2200 | Tomorrow: Tue: 0700-2200 | Wednesday: Wed: 0700-2200 | Thursday: Thu: 0700-2200 | Friday: Fri: 0700-2200 | Saturday: Sat: 0700-2200 | Sunday: Sun: 0700-2100 | Monday: Mon: 0700-2200
1703,Jannali Metro,SUPERMARKETS,541 Box Rd,,Jannali,NSW,2226,-34.01602,151.06604,(02) 9535 8502,False,21.41,11:0,Today: Mon: 0700-2200 | Tomorrow: Tue: 0700-2200 | Wednesday: Wed: 0700-2200 | Thursday: Thu: 0700-2200 | Friday: Fri: 0700-2200 | Saturday: Sat: 0700-2200 | Sunday: Sun: 0700-2200 | Monday: Mon: 0700-2200
1942,Miranda,SUPERMARKETS,600 The Kingsway,,Miranda,NSW,2228,-34.03466741,151.09892,(02) 8522 7729,False,21.47,11:0,Today: Mon: 0700-2200 | Tomorrow: Tue: 0700-2200 | Wednesday: Wed: 0700-2200 | Thursday: Thu: 0700-2200 | Friday: Fri: 0700-2200 | Saturday: Sat: 0700-2200 | Sunday: Sun: 0700-2200 | Monday: Mon: 0700-2200
1767,Caringbah,SUPERMARKETS,58 President Ave,,Caringbah,NSW,2229,-34.04295163,151.1185492,(02) 8522 7724,False,21.51,11:0,Today: Mon: 0700-2200 | Tomorrow: Tue: 0700-2200 | Wednesday: Wed: 0700-2200 | Thursday: Thu: 0700-2200 | Friday: Fri: 0700-2200 | Saturday: Sat: 0700-2200 | Sunday: Sun: 0700-2200 | Monday: Mon: 0700-2200
22427,Ampol Foodary Northmead,AMPOL,98-100-Windsor Rd Cnr Lombard Rd,,Northmead,NSW,2152,-33.787927,150.994699,,True,21.66,11:0,Today: Mon: 24 Hours | Tomorrow: Tue: 24 Hours | Wednesday: Wed: 24 Hours | Thursday: Thu: 24 Hours | Friday: Fri: 24 Hours | Saturday: Sat: 24 Hours | Sunday: Sun: 24 Hours | Monday: Mon: 24 Hours
1240,Cronulla Metro,SUPERMARKETS,84-86 Cronulla Street,,Cronulla,NSW,2230,-34.053881,151.152354,(02) 8522 7715,False,21.66,11:0,Today: Mon: 0600-2200 | Tomorrow: Tue: 0600-2200 | Wednesday: Wed: 0600-2200 | Thursday: Thu: 0600-2200 | Friday: Fri: 0600-2200 | Saturday: Sat: 0600-2200 | Sunday: Sun: 0600-2200 | Monday: Mon: 0600-2200
20040,Ampol Foodary Kirrawee,AMPOL,487-Princes Hwy,,Kirrawee,NSW,2232,-34.029362,151.080724,,False,21.82,11:0,Today: Mon: 0500-2300 | Tomorrow: Tue: 0500-2300 | Wednesday: Wed: 0500-2300 | Thursday: Thu: 0500-2300 | Friday: Fri: 0500-2300 | Saturday: Sat: 0500-2300 | Sunday: Sun: 0500-2300 | Monday: Mon: 0500-2300
22436,Ampol Foodary Woolooware,AMPOL,100-Woolooware Rd,,Woolooware,NSW,2230,-34.052747,151.1408431,,False,21.83,11:0,Today: Mon: 0600-2100 | Tomorrow: Tue: 0600-2100 | Wednesday: Wed: 0600-2100 | Thursday: Thu: 0600-2100 | Friday: Fri: 0600-2100 | Saturday: Sat: 0600-2100 | Sunday: Sun: 0600-2100 | Monday: Mon: 0600-2100
22014,Ampol Foodary Cherrybrook,AMPOL,67-Shepherds Dr Cnr Macquarie Dr,,Cherrybrook,NSW,2126,-33.720598,151.045309,,False,22.12,11:0,Today: Mon: 0600-2200 | Tomorrow: Tue: 0600-2200 | Wednesday: Wed: 0600-2200 | Thursday: Thu: 0600-2200 | Friday: Fri: 0600-2200 | Saturday: Sat: 0600-2200 | Sunday: Sun: 0600-2200 | Monday: Mon: 0600-2200
1607,Cherrybrook Village,SUPERMARKETS,"Shop 17, Cherrybrook Village, 41-47 Shepherds Drive",,Cherrybrook,NSW,2126,-33.720846,151.044132,(02) 9450 6715,False,22.18,11:0,Today: Mon: 0700-2200 | Tomorrow: Tue: 0700-2200 | Wednesday: Wed: 0700-2200 | Thursday: Thu: 0700-2200 | Friday: Fri: 0700-2200 | Saturday: Sat: 0700-2200 | Sunday: Sun: 0700-2200 | Monday: Mon: 0700-2200
22453,Ampol Foodary Lilli Pilli,AMPOL,477-481-Port Hacking Rd,,Caringbah South,NSW,2229,-34.0524306,151.1215625,,False,22.38,11:0,Today: Mon: 0600-2100 | Tomorrow: Tue: 0600-2100 | Wednesday: Wed: 0600-2100 | Thursday: Thu: 0600-2100 | Friday: Fri: 0600-2100 | Saturday: Sat: 0600-2100 | Sunday: Sun: 0600-2100 | Monday: Mon: 0600-2100
22285,Ampol Foodary Wentworthville,AMPOL,313-Great Western Hwy,,South Wentworthville,NSW,2145,-33.816437,150.971885,,True,22.64,11:0,Today: Mon: 24 Hours | Tomorrow: Tue: 24 Hours | Wednesday: Wed: 24 Hours | Thursday: Thu: 24 Hours | Friday: Fri: 24 Hours | Saturday: Sat: 24 Hours | Sunday: Sun: 24 Hours | Monday: Mon: 24 Hours
1771,Mona Vale,SUPERMARKETS,25-29 Park Street,,Mona Vale,NSW,2103,-33.6761494,151.3019302,(02) 9450 6721,False,22.65,11:0,Today: Mon: 0700-2200 | Tomorrow: Tue: 0700-2200 | Wednesday: Wed: 0700-2200 | Thursday: Thu: 0700-2200 | Friday: Fri: 0700-2200 | Saturday: Sat: 0700-2200 | Sunday: Sun: 0700-2200 | Monday: Mon: 0700-2200
1579,Kirrawee,SUPERMARKETS,28-34 Flora Street,,Kirrawee,NSW,2232,-34.03443862,151.0726759,(02) 8522 7737,False,22.7,11:0,Today: Mon: 0700-2200 | Tomorrow: Tue: 0700-2200 | Wednesday: Wed: 0700-2200 | Thursday: Thu: 0700-2200 | Friday: Fri: 0700-2200 | Saturday: Sat: 0700-2200 | Sunday: Sun: 0700-2200 | Monday: Mon: 0700-2200
1183,Wentworthville,SUPERMARKETS,326-336  Great Western Hwy,,Wentworthville,NSW,2145,-33.81584698,150.970797,(02) 8633 2916,False,22.76,11:0,Today: Mon: 0700-2300 | Tomorrow: Tue: 0700-2300 | Wednesday: Wed: 0700-2300 | Thursday: Thu: 0700-2300 | Friday: Fri: 0700-2300 | Saturday: Sat: 0700-2300 | Sunday: Sun: 0700-2300 | Monday: Mon: 0700-2300
1105,Baulkham Hills,SUPERMARKETS,375-383 Windsor Road,,Baulkham Hills,NSW,2153,-33.75842263,150.9923503,(02) 8633 2904,False,23.34,11:0,Today: Mon: 0700-2200 | Tomorrow: Tue: 0700-2200 | Wednesday: Wed: 0700-2200 | Thursday: Thu: 0700-2200 | Friday: Fri: 0700-2200 | Saturday: Sat: 0700-2200 | Sunday: Sun: 0700-2200 | Monday: Mon: 0700-2200
22260,U-Go Mount Colah,AMPOL,603-Pacific Hwy,,Mount Colah,NSW,2079,-33.670458,151.115,,True,23.35,11:0,Today: Mon: 24 Hours | Tomorrow: Tue: 24 Hours | Wednesday: Wed: 24 Hours | Thursday: Thu: 24 Hours | Friday: Fri: 24 Hours | Saturday: Sat: 24 Hours | Sunday: Sun: 24 Hours | Monday: Mon: 24 Hours
1145,Fairfield,SUPERMARKETS,"Neeta City Shopping Centre, 1-29 Court Street",,Fairfield,NSW,2165,-33.868687,150.956333,(02) 8709 4312,False,23.42,11:0,Today: Mon: 0700-2100 | Tomorrow: Tue: 0700-2100 | Wednesday: Wed: 0700-2100 | Thursday: Thu: 0700-2100 | Friday: Fri: 0700-2100 | Saturday: Sat: 0800-2100 | Sunday: Sun: 0800-2100 | Monday: Mon: 0700-2100
91736,Lansvale,EG,136 Hume Highway (cnr Hollywood Drive),,Lansvale,NSW,2166,-33.8947,150.9582,02 8073 3980,True,23.48,11:0,Today: Mon: 24 Hours | Tomorrow: Tue: 24 Hours | Wednesday: Wed: 24 Hours | Thursday: Thu: 24 Hours | Friday: Fri: 24 Hours | Saturday: Sat: 24 Hours | Sunday: Sun: 24 Hours | Monday: Mon: 24 Hours
26000,Ampol Foodary Lansvale,AMPOL,141-151-Hume Hwy Cnr Chadderton St,,Lansvale,NSW,2166,-33.8943954,150.9571983,,False,23.57,11:0,Today: Mon: 0400-2359 | Tomorrow: Tue: 0400-2359 | Wednesday: Wed: 0400-2359 | Thursday: Thu: 0400-2359 | Friday: Fri: 0400-2359 | Saturday: Sat: 0400-2359 | Sunday: Sun: 0400-2359 | Monday: Mon: 0400-2359
91729,Chipping Norton,EG,147 Newbridge Rd,,Chipping Norton,NSW,2170,-33.9281,150.964,02 5632 9563,True,23.76,11:0,Today: Mon: 24 Hours | Tomorrow: Tue: 24 Hours | Wednesday: Wed: 24 Hours | Thursday: Thu: 24 Hours | Friday: Fri: 24 Hours | Saturday: Sat: 24 Hours | Sunday: Sun: 24 Hours | Monday: Mon: 24 Hours
1958,Greystanes,SUPERMARKETS,665-669 Merrylands Road,,Greystanes,NSW,2145,-33.82870559,150.9515466,(02) 8633 2947,False,24.21,11:0,Today: Mon: 0700-2200 | Tomorrow: Tue: 0700-2200 | Wednesday: Wed: 0700-2200 | Thursday: Thu: 0700-2200 | Friday: Fri: 0700-2200 | Saturday: Sat: 0700-2200 | Sunday: Sun: 0700-2200 | Monday: Mon: 0700-2200
1092,Menai,SUPERMARKETS,Allison Crescent,,Menai,NSW,2234,-34.01372,151.01593,(02) 8522 7706,False,24.37,11:0,Today: Mon: 0700-2200 | Tomorrow: Tue: 0700-2200 | Wednesday: Wed: 0700-2200 | Thursday: Thu: 0700-2200 | Friday: Fri: 0700-2200 | Saturday: Sat: 0700-2200 | Sunday: Sun: 0700-2200 | Monday: Mon: 0700-2200
1757,Winston Hills,SUPERMARKETS,"Winston Hills Mall, 180 Caroline Chisholm Drive",,Winston Hills,NSW,2153,-33.77269462,150.9695273,(02) 9677 6459,False,24.47,11:0,Today: Mon: 0700-2200 | Tomorrow: Tue: 0700-2200 | Wednesday: Wed: 0700-2200 | Thursday: Thu: 0700-2200 | Friday: Fri: 0700-2200 | Saturday: Sat: 0700-2200 | Sunday: Sun: 0700-2200 | Monday: Mon: 0700-2200
91699,Menai,EG,Cnr Allison Crescent & Old Menai Road,,Menai,NSW,2234,-34.0152,151.0149,02 8870 7659,False,24.55,11:0,Today: Mon: 0700-2100 | Tomorrow: Tue: 0700-2100 | Wednesday: Wed: 0700-2100 | Thursday: Thu: 0700-2100 | Friday: Fri: 0700-2100 | Saturday: Sat: 0700-2000 | Sunday: Sun: 0800-2000 | Monday: Mon: 0700-2100
22464,U-Go Baulkham Hills,AMPOL,117-Seven Hills Rd,,Baulkham Hills,NSW,2153,-33.7615,150.9752,,True,24.56,11:0,Today: Mon: 24 Hours | Tomorrow: Tue: 24 Hours | Wednesday: Wed: 24 Hours | Thursday: Thu: 24 Hours | Friday: Fri: 24 Hours | Saturday: Sat: 24 Hours | Sunday: Sun: 24 Hours | Monday: Mon: 24 Hours
22397,Ampol Foodary Moorebank,AMPOL,216-Newbridge Rd,,Moorebank,NSW,2170,-33.9292799,150.9552485,,False,24.57,11:0,Today: Mon: 0500-2200 | Tomorrow: Tue: 0500-2200 | Wednesday: Wed: 0500-2200 | Thursday: Thu: 0500-2200 | Friday: Fri: 0500-2200 | Saturday: Sat: 0500-2200 | Sunday: Sun: 0500-2200 | Monday: Mon: 0500-2200
22774,Ampol Foodary Menai,AMPOL,Menai Rd Cnr Carter Rd,,Menai,NSW,2234,-34.016668,151.012418,,False,24.83,11:0,Today: Mon: 0500-2200 | Tomorrow: Tue: 0500-2200 | Wednesday: Wed: 0500-2200 | Thursday: Thu: 0500-2200 | Friday: Fri: 0500-2200 | Saturday: Sat: 0500-2200 | Sunday: Sun: 0500-2200 | Monday: Mon: 0500-2200
1226,Fairfield Heights,SUPERMARKETS,186 The Boulevard,,Fairfield Heights,NSW,2165,-33.86425173,150.9389318,(02) 8709 4329,False,25.03,11:0,Today: Mon: 0700-2300 | Tomorrow: Tue: 0700-2300 | Wednesday: Wed: 0700-2300 | Thursday: Thu: 0700-2300 | Friday: Fri: 0700-2300 | Saturday: Sat: 0700-2300 | Sunday: Sun: 0700-2300 | Monday: Mon: 0700-2300
91815,Fairfield Heights,EG,163 The Boulevarde (Cnr Percy St),,Fairfield Heights,NSW,2165,-33.8666,150.9379,02 5632 9564,False,25.12,11:0,Today: Mon: 0600-2200 | Tomorrow: Tue: 0600-2200 | Wednesday: Wed: 0600-2200 | Thursday: Thu: 0600-2200 | Friday: Fri: 0600-2200 | Saturday: Sat: 0600-2200 | Sunday: Sun: 0600-2200 | Monday: Mon: 0600-2200
1127,Moorebank,SUPERMARKETS,"Moorebank Shopping Village, 136 Stockton Avenue",,Moorebank,NSW,2170,-33.93324896,150.9495096,(02) 8785 3615,False,25.21,11:0,Today: Mon: 0700-2100 | Tomorrow: Tue: 0700-2100 | Wednesday: Wed: 0700-2100 | Thursday: Thu: 0700-2100 | Friday: Fri: 0700-2100 | Saturday: Sat: 0700-2100 | Sunday: Sun: 0700-2100 | Monday: Mon: 0700-2100
91531,Moorebank,EG,Cnr Dredge & Stockton Avenue,,Moorebank,NSW,2170,-33.9313,150.9488,02 5632 9592,False,25.21,11:0,Today: Mon: 0630-2100 | Tomorrow: Tue: 0630-2100 | Wednesday: Wed: 0630-2100 | Thursday: Thu: 0630-2100 | Friday: Fri: 0630-2100 | Saturday: Sat: 0700-2000 | Sunday: Sun: 0700-2000 | Monday: Mon: 0630-2100
1109,Cabramatta,SUPERMARKETS,180 Railway Parade,,Cabramatta,NSW,2166,-33.893364,150.938678,(02) 8709 4306,False,25.24,11:0,Today: Mon: 0700-2200 | Tomorrow: Tue: 0700-2200 | Wednesday: Wed: 0700-2200 | Thursday: Thu: 0700-2200 | Friday: Fri: 0700-2200 | Saturday: Sat: 0700-2200 | Sunday: Sun: 0700-2200 | Monday: Mon: 0700-2200
91848,Newport,EG,348 Barrenjoey Road,,Newport,NSW,2106,-33.6556,151.3202,02 5318 2988,False,25.42,11:0,Today: Mon: 0500-2300 | Tomorrow: Tue: 0500-2300 | Wednesday: Wed: 0500-2300 | Thursday: Thu: 0500-2300 | Friday: Fri: 0500-2300 | Saturday: Sat: 0500-2300 | Sunday: Sun: 0600-2300 | Monday: Mon: 0500-2300
22707,Ampol Foodary Pendle Hill,AMPOL,602-606-Great Western Hwy,,Pendle Hill,NSW,2145,-33.808288,150.942082,,True,25.54,11:0,Today: Mon: 24 Hours | Tomorrow: Tue: 24 Hours | Wednesday: Wed: 24 Hours | Thursday: Thu: 24 Hours | Friday: Fri: 24 Hours | Saturday: Sat: 24 Hours | Sunday: Sun: 24 Hours | Monday: Mon: 24 Hours
1413,Toongabbie,SUPERMARKETS,17-19 Aurelia Street,,Toongabbie,NSW,2146,-33.78731526,150.9493058,(02) 8633 2934,False,25.58,11:0,Today: Mon: 0700-2200 | Tomorrow: Tue: 0700-2200 | Wednesday: Wed: 0700-2200 | Thursday: Thu: 0700-2200 | Friday: Fri: 0700-2200 | Saturday: Sat: 0700-2100 | Sunday: Sun: 0800-2100 | Monday: Mon: 0700-2200
1045,Castle Hill Showground Village,SUPERMARKETS,1-5 Doran Drive,,Castle Hill,NSW,2154,-33.726793,150.98712,(02) 8633 2991,False,25.7,11:0,Today: Mon: 0600-2200 | Tomorrow: Tue: 0600-2200 | Wednesday: Wed: 0600-2200 | Thursday: Thu: 0600-2200 | Friday: Fri: 0600-2200 | Saturday: Sat: 0700-2200 | Sunday: Sun: 0700-2200 | Monday: Mon: 0600-2200
91853,Dural,EG,532 Old Northern Road,,Dural,NSW,2158,-33.6935,151.0203,02 5632 9572,False,25.9,11:0,Today: Mon: 0500-2300 | Tomorrow: Tue: 0500-2300 | Wednesday: Wed: 0500-2300 | Thursday: Thu: 0500-2300 | Friday: Fri: 0500-2300 | Saturday: Sat: 0500-2300 | Sunday: Sun: 0600-2200 | Monday: Mon: 0500-2300
92095,SEVEN HILLS,EG,38-Abbott Rd,,Seven Hills,NSW,2147,-33.7668,150.955,02 98384862,True,25.97,11:0,Today: Mon: 24 Hours | Tomorrow: Tue: 24 Hours | Wednesday: Wed: 24 Hours | Thursday: Thu: 24 Hours | Friday: Fri: 24 Hours | Saturday: Sat: 24 Hours | Sunday: Sun: 24 Hours | Monday: Mon: 24 Hours
20956,Ampol Foodary Seven Hills (Abbott Rd),AMPOL,38-Abbott Rd,,Seven Hills,NSW,2147,-33.7668353,150.9548344,,True,25.98,11:0,Today: Mon: 24 Hours | Tomorrow: Tue: 24 Hours | Wednesday: Wed: 24 Hours | Thursday: Thu: 24 Hours | Friday: Fri: 24 Hours | Saturday: Sat: 24 Hours | Sunday: Sun: 24 Hours | Monday: Mon: 24 Hours
1297,Dural,SUPERMARKETS,2 Allen Way,,Round Corner,NSW,2158,-33.6936362,151.0181814,(02) 9652 4028,False,26.03,11:0,Today: Mon: 0700-2200 | Tomorrow: Tue: 0700-2200 | Wednesday: Wed: 0700-2200 | Thursday: Thu: 0700-2200 | Friday: Fri: 0700-2200 | Saturday: Sat: 0700-2200 | Sunday: Sun: 0700-2200 | Monday: Mon: 0700-2200
1368,Pemulwuy,SUPERMARKETS,Cnr Greystanes Road & Butu Wargun Drive,,Pemulwuy,NSW,2145,-33.8185345,150.9330533,(02) 8633 2925,False,26.09,11:0,Today: Mon: 0700-2200 | Tomorrow: Tue: 0700-2200 | Wednesday: Wed: 0700-2200 | Thursday: Thu: 0700-2200 | Friday: Fri: 0700-2200 | Saturday: Sat: 0700-2200 | Sunday: Sun: 0700-2200 | Monday: Mon: 0700-2200
1009,Knightsbridge (Metro),SUPERMARKETS,"159 Ridgecrop Dr, Castle Hill",,Castle Hill,NSW,2154,-33.71299,150.99422,(02) 8633 2964,False,26.14,11:0,Today: Mon: 0700-2200 | Tomorrow: Tue: 0700-2200 | Wednesday: Wed: 0700-2200 | Thursday: Thu: 0700-2200 | Friday: Fri: 0700-2200 | Saturday: Sat: 0700-2100 | Sunday: Sun: 0700-2000 | Monday: Mon: 0700-2200
22243,Ampol Foodary Cabramatta,AMPOL,166-John St Cnr Gladstone St,,Cabramatta,NSW,2166,-33.8941665,150.9279513,,False,26.24,11:0,Today: Mon: 0500-2300 | Tomorrow: Tue: 0500-2300 | Wednesday: Wed: 0500-2300 | Thursday: Thu: 0500-2300 | Friday: Fri: 0500-2300 | Saturday: Sat: 0500-2300 | Sunday: Sun: 0500-2300 | Monday: Mon: 0500-2300
28780,Ampol Foodary Dural,AMPOL,917-923-Old Northern Rd,,Dural,NSW,2158,-33.682886,151.028425,,True,26.3,11:0,Today: Mon: 24 Hours | Tomorrow: Tue: 24 Hours | Wednesday: Wed: 24 Hours | Thursday: Thu: 24 Hours | Friday: Fri: 24 Hours | Saturday: Sat: 24 Hours | Sunday: Sun: 24 Hours | Monday: Mon: 24 Hours
22136,Ampol Foodary Seven Hills (Station Rd),AMPOL,105-Station Rd Cnr Powers Rd,,Seven Hills,NSW,2147,-33.7744585,150.9448021,,True,26.49,11:0,Today: Mon: 24 Hours | Tomorrow: Tue: 24 Hours | Wednesday: Wed: 24 Hours | Thursday: Thu: 24 Hours | Friday: Fri: 24 Hours | Saturday: Sat: 24 Hours | Sunday: Sun: 24 Hours | Monday: Mon: 24 Hours
91433,Seven Hills North,EG,1/155 Prospect Highway,,Seven Hills North,NSW,2147,-33.7695,150.9421,02 96204057,False,26.93,11:0,Today: Mon: 0500-2200 | Tomorrow: Tue: 0500-2200 | Wednesday: Wed: 0500-2200 | Thursday: Thu: 0500-2200 | Friday: Fri: 0500-2200 | Saturday: Sat: 0600-2200 | Sunday: Sun: 0600-2200 | Monday: Mon: 0500-2200
1144,Liverpool,SUPERMARKETS,"Westfield Shopping Centre, Cnr Campbell & Northumberland Street",,Liverpool,NSW,2170,-33.91797707,150.9241889,(02) 8785 3618,False,27.03,11:0,Today: Mon: 0700-2200 | Tomorrow: Tue: 0700-2200 | Wednesday: Wed: 0700-2200 | Thursday: Thu: 0700-2200 | Friday: Fri: 0700-2200 | Saturday: Sat: 0700-2200 | Sunday: Sun: 0700-2200 | Monday: Mon: 0700-2200
1422,Norwest Circa,SUPERMARKETS,1 Circa Boulevarde,,Bella Vista,NSW,2153,-33.746369,150.952183,(02) 9677 6408,False,27.23,11:0,Today: Mon: 0700-2200 | Tomorrow: Tue: 0700-2200 | Wednesday: Wed: 0700-2200 | Thursday: Thu: 0700-2200 | Friday: Fri: 0700-2200 | Saturday: Sat: 0800-2200 | Sunday: Sun: 0800-2200 | Monday: Mon: 0700-2200
91591,North Liverpool,EG,67 Orange Grove Road,,North Liverpool,NSW,2170,-33.9071,150.9179,02 8074 3203,True,27.37,11:0,Today: Mon: 24 Hours | Tomorrow: Tue: 24 Hours | Wednesday: Wed: 24 Hours | Thursday: Thu: 24 Hours | Friday: Fri: 24 Hours | Saturday: Sat: 24 Hours | Sunday: Sun: 24 Hours | Monday: Mon: 24 Hours
91702,Seven Hills,EG,240 Prospect Highway,,Seven Hills,NSW,2147,-33.7763,150.9333,02 9054 0490,True,27.4,11:0,Today: Mon: 24 Hours | Tomorrow: Tue: 24 Hours | Wednesday: Wed: 24 Hours | Thursday: Thu: 24 Hours | Friday: Fri: 24 Hours | Saturday: Sat: 24 Hours | Sunday: Sun: 24 Hours | Monday: Mon: 24 Hours
22541,Ampol Foodary Berowra,AMPOL,12-14-Berowra Waters Rd,,Berowra,NSW,2081,-33.6233814,151.150554,,False,27.42,11:0,Today: Mon: 0600-1900 | Tomorrow: Tue: 0600-1900 | Wednesday: Wed: 0600-1900 | Thursday: Thu: 0600-1900 | Friday: Fri: 0600-1900 | Saturday: Sat: 0700-1900 | Sunday: Sun: 0700-1900 | Monday: Mon: 0600-1900
1175,Seven Hills,SUPERMARKETS,224 Prospect Highway,,Seven Hills,NSW,2147,-33.7755215,150.9312681,(02) 9677 6432,False,27.6,11:0,Today: Mon: 0700-2200 | Tomorrow: Tue: 0700-2200 | Wednesday: Wed: 0700-2200 | Thursday: Thu: 0700-2200 | Friday: Fri: 0700-2200 | Saturday: Sat: 0700-2200 | Sunday: Sun: 0700-2200 | Monday: Mon: 0700-2200
8380,Avalon Metro,SUPERMARKETS,74 Old Barrenjoey Road,,Avalon,NSW,2107,-33.636243,151.329798,(02) 9973 8900,False,27.74,11:0,Today: Mon: 0700-2200 | Tomorrow: Tue: 0700-2200 | Wednesday: Wed: 0700-2200 | Thursday: Thu: 0700-2200 | Friday: Fri: 0700-2200 | Saturday: Sat: 0700-2200 | Sunday: Sun: 0700-2200 | Monday: Mon: 0700-2200
1347,Kellyville,SUPERMARKETS,88 Wrights Road,,Kellyville,NSW,2155,-33.71335,150.97116,(02) 9677 6447,False,27.78,11:0,Today: Mon: 0600-2200 | Tomorrow: Tue: 0600-2200 | Wednesday: Wed: 0600-2200 | Thursday: Thu: 0600-2200 | Friday: Fri: 0600-2200 | Saturday: Sat: 0600-2200 | Sunday: Sun: 0600-2200 | Monday: Mon: 0600-2200
1662,Norwest (Metro),SUPERMARKETS,1 Woolworths Way,,Bella Vista,NSW,2153,-33.736183,150.950775,(02) 9677 6465,False,27.91,11:0,Today: Mon: 0700-1700 | Tomorrow: Tue: 0700-1700 | Wednesday: Wed: 0700-1700 | Thursday: Thu: 0700-1700 | Friday: Fri: 0700-1700 | Saturday: Sat: Closed | Sunday: Sun: Closed | Monday: Mon: 0700-1700
22737,Ampol Foodary Kellyville,AMPOL,3-5-Windsor Rd,,Kellyville,NSW,2155,-33.714403,150.960118,,False,28.52,11:0,Today: Mon: 0500-2359 | Tomorrow: Tue: 0500-2359 | Wednesday: Wed: 0500-2359 | Thursday: Thu: 0500-2359 | Friday: Fri: 0500-2359 | Saturday: Sat: 0500-2359 | Sunday: Sun: 0500-2359 | Monday: Mon: 0500-2359
1269,Engadine,SUPERMARKETS,1031 Old Princes Highway,,Engadine,NSW,2233,-34.064255,151.013364,(02) 9548 7100,False,28.63,11:0,Today: Mon: 0700-2200 | Tomorrow: Tue: 0700-2200 | Wednesday: Wed: 0700-2200 | Thursday: Thu: 0700-2200 | Friday: Fri: 0700-2200 | Saturday: Sat: 0700-2200 | Sunday: Sun: 0700-2200 | Monday: Mon: 0700-2200
1659,Kellyville Grove,SUPERMARKETS,2 Hector Court,,Kellyville,NSW,2155,-33.718592,150.954105,(02) 9624 9402,False,28.71,11:0,Today: Mon: 0700-2200 | Tomorrow: Tue: 0700-2200 | Wednesday: Wed: 0700-2200 | Thursday: Thu: 0700-2200 | Friday: Fri: 0700-2200 | Saturday: Sat: 0700-2200 | Sunday: Sun: 0700-2200 | Monday: Mon: 0700-2200
1386,Wetherill Park,SUPERMARKETS,Cnr Restwell Road & Polding st Prairewood,,Wetherill Park,NSW,2164,-33.8601558,150.8978304,(02) 8785 3636,False,28.83,11:0,Today: Mon: 0700-2300 | Tomorrow: Tue: 0700-2300 | Wednesday: Wed: 0700-2300 | Thursday: Thu: 0700-2300 | Friday: Fri: 0700-2300 | Saturday: Sat: 0700-2300 | Sunday: Sun: 0700-2300 | Monday: Mon: 0700-2300
1323,Prospect,SUPERMARKETS,360 Flushcombe Road,,Prospect,NSW,2148,-33.7961021,150.9051741,(02) 9677 6441,False,29.18,11:0,Today: Mon: 0700-2200 | Tomorrow: Tue: 0700-2200 | Wednesday: Wed: 0700-2200 | Thursday: Thu: 0700-2200 | Friday: Fri: 0700-2200 | Saturday: Sat: 0700-2200 | Sunday: Sun: 0700-2200 | Monday: Mon: 0700-2200
91762,Prospect,EG,360 Flushcombe Road,,Prospect,NSW,2148,-33.7964,150.9046,02 9054 0489,False,29.22,11:0,Today: Mon: 0630-2100 | Tomorrow: Tue: 0630-2100 | Wednesday: Wed: 0630-2100 | Thursday: Thu: 0630-2100 | Friday: Fri: 0630-2100 | Saturday: Sat: 0630-2000 | Sunday: Sun: 0800-2000 | Monday: Mon: 0630-2100
28413,Ampol Foodary Wetherill Park,AMPOL,Cnr The Horsley Dr & Mcilwraith St,,Wetherill Park,NSW,2164,-33.852384,150.891176,,False,29.47,11:0,Today: Mon: 0500-2300 | Tomorrow: Tue: 0500-2300 | Wednesday: Wed: 0500-2300 | Thursday: Thu: 0500-2300 | Friday: Fri: 0500-2300 | Saturday: Sat: 0530-2200 | Sunday: Sun: 0530-2200 | Monday: Mon: 0500-2300
20436,Ampol Parklea,AMPOL,1190-Old Windsor Rd Near Miami St Shop 3,,Parklea,NSW,2768,-33.724276,150.938842,02 98365614,True,29.54,11:0,Today: Mon: 24 Hours | Tomorrow: Tue: 24 Hours | Wednesday: Wed: 24 Hours | Thursday: Thu: 24 Hours | Friday: Fri: 24 Hours | Saturday: Sat: 24 Hours | Sunday: Sun: 24 Hours | Monday: Mon: 24 Hours
1184,Bonnyrigg,SUPERMARKETS,100 Bonnyrigg Avenue,,Bonnyrigg,NSW,2177,-33.8860282,150.8885955,(02) 8785 3621,False,29.76,11:0,Today: Mon: 0700-2300 | Tomorrow: Tue: 0700-2300 | Wednesday: Wed: 0700-2300 | Thursday: Thu: 0700-2300 | Friday: Fri: 0700-2300 | Saturday: Sat: 0700-2300 | Sunday: Sun: 0700-2300 | Monday: Mon: 0700-2300
1338,Kings Langley,SUPERMARKETS,125 James Cook Drive,,Kings Langley,NSW,2147,-33.7434477,150.9224649,(02) 9677 6444,False,29.81,11:0,Today: Mon: 0700-2200 | Tomorrow: Tue: 0700-2200 | Wednesday: Wed: 0700-2200 | Thursday: Thu: 0700-2200 | Friday: Fri: 0700-2200 | Saturday: Sat: 0700-2200 | Sunday: Sun: 0700-2200 | Monday: Mon: 0700-2200
1348,Glenwood,SUPERMARKETS,60 Glenwood Park Drive,,Glenwood,NSW,2768,-33.734126,150.928151,(02) 9677 6450,False,29.83,11:0,Today: Mon: 0700-2200 | Tomorrow: Tue: 0700-2200 | Wednesday: Wed: 0700-2200 | Thursday: Thu: 0700-2200 | Friday: Fri: 0700-2200 | Saturday: Sat: 0700-2200 | Sunday: Sun: 0700-2200 | Monday: Mon: 0700-2200
91567,Bonnyrigg,EG,Bonnyrigg Avenue,,Bonnyrigg,NSW,2177,-33.8869,150.8871,02 8073 3973,False,29.91,11:0,Today: Mon: 0600-2200 | Tomorrow: Tue: 0600-2200 | Wednesday: Wed: 0600-2200 | Thursday: Thu: 0600-2200 | Friday: Fri: 0600-2200 | Saturday: Sat: 0700-2100 | Sunday: Sun: 0800-2100 | Monday: Mon: 0600-2200
1288,Blacktown,SUPERMARKETS,"Westpoint Shopping Centre, 17 Patrick Street",,Blacktown,NSW,2148,-33.77145931,150.9059675,(02) 9677 6438,False,29.95,11:0,Today: Mon: 0700-2200 | Tomorrow: Tue: 0700-2200 | Wednesday: Wed: 0700-2200 | Thursday: Thu: 0700-2200 | Friday: Fri: 0700-2200 | Saturday: Sat: 0700-2200 | Sunday: Sun: 0700-2200 | Monday: Mon: 0700-2200
91541,Blacktown,EG,37 Third Avenue,,Blacktown,NSW,2148,-33.7647,150.9087,02 9054 0491,False,29.99,11:0,Today: Mon: 0600-0000 | Tomorrow: Tue: 0600-0000 | Wednesday: Wed: 0600-0000 | Thursday: Thu: 0600-0000 | Friday: Fri: 0600-0000 | Saturday: Sat: 0600-0000 | Sunday: Sun: 0600-0000 | Monday: Mon: 0600-0000
1138,Casula,SUPERMARKETS,607 Hume Highway,,Casula,NSW,2170,-33.954025,150.897029,(02) 8785 3648,False,30.53,11:0,Today: Mon: 0700-2200 | Tomorrow: Tue: 0700-2200 | Wednesday: Wed: 0700-2200 | Thursday: Thu: 0700-2200 | Friday: Fri: 0700-2200 | Saturday: Sat: 0700-2200 | Sunday: Sun: 0700-2200 | Monday: Mon: 0700-2200
28576,Ampol Foodary Eastern Creek Eastbound,AMPOL,M4 Motorway Eastbound,,Eastern Creek,NSW,2766,-33.8016783,150.8859746,,True,30.75,11:0,Today: Mon: 24 Hours | Tomorrow: Tue: 24 Hours | Wednesday: Wed: 24 Hours | Thursday: Thu: 24 Hours | Friday: Fri: 24 Hours | Saturday: Sat: 24 Hours | Sunday: Sun: 24 Hours | Monday: Mon: 24 Hours
1216,Miller,SUPERMARKETS,"Miller Central, 90 Cartwright Avenue",,Miller,NSW,2168,-33.91954203,150.8830697,(02) 8785 3627,False,30.78,11:0,Today: Mon: 0700-2100 | Tomorrow: Tue: 0700-2100 | Wednesday: Wed: 0700-2100 | Thursday: Thu: 0700-2100 | Friday: Fri: 0700-2100 | Saturday: Sat: 0700-2100 | Sunday: Sun: 0700-2000 | Monday: Mon: 0700-2100
22433,Ampol Foodary Miller,AMPOL,86-Cartwright Ave Cnr Woodward Cres,,Miller,NSW,2168,-33.918823,150.882739,,True,30.79,11:0,Today: Mon: 24 Hours | Tomorrow: Tue: 24 Hours | Wednesday: Wed: 24 Hours | Thursday: Thu: 24 Hours | Friday: Fri: 24 Hours | Saturday: Sat: 24 Hours | Sunday: Sun: 24 Hours | Monday: Mon: 24 Hours
28412,Ampol Foodary Heathcote Southbound,AMPOL,1344-Princes Highway,,Heathcote,NSW,2233,-34.088379,151.007188,,True,31.09,11:0,Today: Mon: 24 Hours | Tomorrow: Tue: 24 Hours | Wednesday: Wed: 24 Hours | Thursday: Thu: 24 Hours | Friday: Fri: 24 Hours | Saturday: Sat: 24 Hours | Sunday: Sun: 24 Hours | Monday: Mon: 24 Hours
1561,Kellyville North,SUPERMARKETS,Cnr Withers & Hezlett Roads,,Kellyville North,NSW,2155,-33.68570782,150.9515807,(02) 9677 6468,False,31.11,11:0,Today: Mon: 0700-2300 | Tomorrow: Tue: 0700-2300 | Wednesday: Wed: 0700-2300 | Thursday: Thu: 0700-2300 | Friday: Fri: 0700-2300 | Saturday: Sat: 0700-2300 | Sunday: Sun: 0700-2300 | Monday: Mon: 0700-2300
91587,Marayong,EG,Cnr Vardys & Turbo Roads,,Marayong,NSW,2148,-33.7453,150.9042,02 8074 5053,True,31.23,11:0,Today: Mon: 24 Hours | Tomorrow: Tue: 24 Hours | Wednesday: Wed: 24 Hours | Thursday: Thu: 24 Hours | Friday: Fri: 24 Hours | Saturday: Sat: 24 Hours | Sunday: Sun: 24 Hours | Monday: Mon: 24 Hours
28577,Ampol Foodary Eastern Creek Westbound,AMPOL,M4 Motorway Westbound,,Eastern Creek,NSW,2766,-33.802145,150.880213,,True,31.25,11:0,Today: Mon: 24 Hours | Tomorrow: Tue: 24 Hours | Wednesday: Wed: 24 Hours | Thursday: Thu: 24 Hours | Friday: Fri: 24 Hours | Saturday: Sat: 24 Hours | Sunday: Sun: 24 Hours | Monday: Mon: 24 Hours
28923,Ampol Foodary Heathcote Northbound,AMPOL,1403-Princes Hwy,,Heathcote,NSW,2233,-34.090595,151.003738,,True,31.48,11:0,Today: Mon: 24 Hours | Tomorrow: Tue: 24 Hours | Wednesday: Wed: 24 Hours | Thursday: Thu: 24 Hours | Friday: Fri: 24 Hours | Saturday: Sat: 24 Hours | Sunday: Sun: 24 Hours | Monday: Mon: 24 Hours
91586,Kellyville,EG,662 Windsor Rd (cnr Merriville Rd),,Kellyville,NSW,2155,-33.6995,150.9279,02 6865 5852,True,31.91,11:0,Today: Mon: 24 Hours | Tomorrow: Tue: 24 Hours | Wednesday: Wed: 24 Hours | Thursday: Thu: 24 Hours | Friday: Fri: 24 Hours | Saturday: Sat: 24 Hours | Sunday: Sun: 24 Hours | Monday: Mon: 24 Hours
1646,Green Valley,SUPERMARKETS,"The Valley Plaza, 187 Wilson Road",,Hinchinbrook,NSW,2168,-33.907862,150.8672379,(02) 8785 3642,False,32,11:0,Today: Mon: 0700-2200 | Tomorrow: Tue: 0700-2200 | Wednesday: Wed: 0700-2200 | Thursday: Thu: 0700-2200 | Friday: Fri: 0700-2200 | Saturday: Sat: 0700-2200 | Sunday: Sun: 0700-2200 | Monday: Mon: 0700-2200
1317,Macquarie Fields,SUPERMARKETS,Victoria Road and Brooks Street,,Macquarie Fields,NSW,2564,-33.9870185,150.8908538,(02) 8785 3633,False,32.42,11:0,Today: Mon: 0700-2200 | Tomorrow: Tue: 0700-2200 | Wednesday: Wed: 0700-2200 | Thursday: Thu: 0700-2200 | Friday: Fri: 0700-2200 | Saturday: Sat: 0700-2200 | Sunday: Sun: 0700-2200 | Monday: Mon: 0700-2200
91448,Macquarie Fields,EG,Brooks Street (Glenquarie Shopping Centre),,Macquarie Fields,NSW,2564,-33.9878,150.8902,02 8870 7639,False,32.51,11:0,Today: Mon: 0600-2200 | Tomorrow: Tue: 0600-2200 | Wednesday: Wed: 0600-2200 | Thursday: Thu: 0600-2200 | Friday: Fri: 0600-2200 | Saturday: Sat: 0600-2200 | Sunday: Sun: 0600-2200 | Monday: Mon: 0600-2200
1090,Rouse Hill,SUPERMARKETS,10-14 Market Lane,,Rouse Hill,NSW,2155,-33.6902778,150.9275,(02) 9677 6417,False,32.55,11:0,Today: Mon: 0700-2200 | Tomorrow: Tue: 0700-2200 | Wednesday: Wed: 0700-2200 | Thursday: Thu: 0700-2200 | Friday: Fri: 0700-2200 | Saturday: Sat: 0700-2200 | Sunday: Sun: 0700-2200 | Monday: Mon: 0700-2200
91594,Prestons,EG,Cnr Camden Valley Way & Ash Road,,Prestons,NSW,2170,-33.9558,150.8724,02 8073 7682,True,32.75,11:0,Today: Mon: 24 Hours | Tomorrow: Tue: 24 Hours | Wednesday: Wed: 24 Hours | Thursday: Thu: 24 Hours | Friday: Fri: 24 Hours | Saturday: Sat: 24 Hours | Sunday: Sun: 24 Hours | Monday: Mon: 24 Hours
1272,The Ponds,SUPERMARKETS,Cnr Riverbank Drive and The Ponds Boulevard,,The Ponds,NSW,2769,-33.7059045,150.9113498,(02) 9677 6462,False,32.78,11:0,Today: Mon: 0700-2200 | Tomorrow: Tue: 0700-2200 | Wednesday: Wed: 0700-2200 | Thursday: Thu: 0700-2200 | Friday: Fri: 0700-2200 | Saturday: Sat: 0700-2200 | Sunday: Sun: 0700-2200 | Monday: Mon: 0700-2200
1108,Marayong,SUPERMARKETS,"Quakers Court, Cnr Falmouth And Quaker Roads",,Marayong,NSW,2148,-33.74035933,150.8856225,(02) 9677 6420,False,33.02,11:0,Today: Mon: 0700-2200 | Tomorrow: Tue: 0700-2200 | Wednesday: Wed: 0700-2200 | Thursday: Thu: 0700-2200 | Friday: Fri: 0700-2200 | Saturday: Sat: 0700-2200 | Sunday: Sun: 0700-2200 | Monday: Mon: 0700-2200
91895,Hoxton Park,EG,Lot 103 Cowpasture Road (Corner of M7),,Hoxton Park,NSW,2171,-33.9159,150.8547,02 5318 2962,False,33.28,11:0,Today: Mon: 0400-2300 | Tomorrow: Tue: 0400-2300 | Wednesday: Wed: 0400-2300 | Thursday: Thu: 0400-2300 | Friday: Fri: 0400-2300 | Saturday: Sat: 0500-2300 | Sunday: Sun: 0500-2300 | Monday: Mon: 0400-2300
28491,Ampol Foodary Edmondson Park,AMPOL,2072-Camden Valley Way,,Edmondson Park,NSW,2174,-33.9566724,150.86491,,False,33.44,11:0,Today: Mon: 0500-2200 | Tomorrow: Tue: 0500-2200 | Wednesday: Wed: 0500-2200 | Thursday: Thu: 0500-2200 | Friday: Fri: 0500-2200 | Saturday: Sat: 0500-2200 | Sunday: Sun: 0500-2200 | Monday: Mon: 0500-2200
1306,Cecil Hills,SUPERMARKETS,Cnr Sandringham Drive And Fedore Road,,Cecil Hills,NSW,2171,-33.88684546,150.8487645,(02) 8785 3630,False,33.44,11:0,Today: Mon: 0700-2200 | Tomorrow: Tue: 0700-2200 | Wednesday: Wed: 0700-2200 | Thursday: Thu: 0700-2200 | Friday: Fri: 0700-2200 | Saturday: Sat: 0700-2200 | Sunday: Sun: 0700-2200 | Monday: Mon: 0700-2200
1643,Prestons,SUPERMARKETS,1975 - 1985 Camden Valley Way,,Prestons,NSW,2170,-33.95216,150.85544,(02) 8785 3654,False,34.13,11:0,Today: Mon: 0700-2200 | Tomorrow: Tue: 0700-2200 | Wednesday: Wed: 0700-2200 | Thursday: Thu: 0700-2200 | Friday: Fri: 0700-2200 | Saturday: Sat: 0700-2200 | Sunday: Sun: 0700-2200 | Monday: Mon: 0700-2200
1003,Eastern Creek,SUPERMARKETS,159 Rooty Hill Road South,,Eastern Creek,NSW,2766,-33.7839064,150.8534532,(02) 9677 6497,False,34.15,11:0,Today: Mon: 0700-2200 | Tomorrow: Tue: 0700-2200 | Wednesday: Wed: 0700-2200 | Thursday: Thu: 0700-2200 | Friday: Fri: 0700-2200 | Saturday: Sat: 0700-2200 | Sunday: Sun: 0700-2200 | Monday: Mon: 0700-2200
1758,Carnes Hill,SUPERMARKETS,245 Cowpasture Road,,Carnes Hill,NSW,2171,-33.93672159,150.8463877,(02) 8785 3645,False,34.49,11:0,Today: Mon: 0700-2300 | Tomorrow: Tue: 0700-2300 | Wednesday: Wed: 0700-2300 | Thursday: Thu: 0700-2300 | Friday: Fri: 0700-2300 | Saturday: Sat: 0700-2300 | Sunday: Sun: 0700-2300 | Monday: Mon: 0700-2300
91823,Carnes Hill,EG,Lot 100 Kurrajong Road,,Carnes Hill,NSW,2171,-33.9361,150.8442,02 8074 0894,False,34.67,11:0,Today: Mon: 0600-2300 | Tomorrow: Tue: 0600-2300 | Wednesday: Wed: 0600-2300 | Thursday: Thu: 0600-2300 | Friday: Fri: 0600-2300 | Saturday: Sat: 0600-2300 | Sunday: Sun: 0600-2300 | Monday: Mon: 0600-2300
1115,Glenorie,SUPERMARKETS,936-938 Old Northern Road,,Glenorie,NSW,2157,-33.6013641,151.007019,(02) 9652 4025,False,34.81,11:0,Today: Mon: 0700-2100 | Tomorrow: Tue: 0700-2100 | Wednesday: Wed: 0700-2100 | Thursday: Thu: 0700-2100 | Friday: Fri: 0700-2100 | Saturday: Sat: 0700-2100 | Sunday: Sun: 0700-2100 | Monday: Mon: 0700-2100
91427,Ingleburn,EG,12-14 Norfolk Street,,Ingleburn,NSW,2565,-34,150.8647,02 5318 2976,False,35.22,11:0,Today: Mon: 0600-2200 | Tomorrow: Tue: 0600-2200 | Wednesday: Wed: 0600-2200 | Thursday: Thu: 0600-2200 | Friday: Fri: 0600-2200 | Saturday: Sat: 0600-2200 | Sunday: Sun: 0600-2200 | Monday: Mon: 0600-2200
1204,Ingleburn,SUPERMARKETS,"Ingleburn Town Centre, Cnr Nardoo & Norfolk Street",,Ingleburn,NSW,2565,-33.99965,150.863961,(02) 8785 3624,False,35.26,11:0,Today: Mon: 0700-2200 | Tomorrow: Tue: 0700-2200 | Wednesday: Wed: 0700-2200 | Thursday: Thu: 0700-2200 | Friday: Fri: 0700-2200 | Saturday: Sat: 0700-2200 | Sunday: Sun: 0700-2200 | Monday: Mon: 0700-2200
1941,Schofields,SUPERMARKETS,Railway Terrace and Pelican Road,,Schofields,NSW,2762,-33.7038993,150.8756103,(02) 9677 6491,False,35.72,11:0,Today: Mon: 0700-2300 | Tomorrow: Tue: 0700-2300 | Wednesday: Wed: 0700-2300 | Thursday: Thu: 0700-2300 | Friday: Fri: 0700-2300 | Saturday: Sat: 0700-2300 | Sunday: Sun: 0700-2300 | Monday: Mon: 0700-2300
91512,Plumpton,EG,Plumpton Market Place Jersey Road,,Plumpton,NSW,2761,-33.7447,150.8369,02 5318 2990,True,36.98,11:0,Today: Mon: 24 Hours | Tomorrow: Tue: 24 Hours | Wednesday: Wed: 24 Hours | Thursday: Thu: 24 Hours | Friday: Fri: 24 Hours | Saturday: Sat: 24 Hours | Sunday: Sun: 24 Hours | Monday: Mon: 24 Hours
1189,Plumpton,SUPERMARKETS,260 Jersey Road,,Plumpton,NSW,2761,-33.7460439,150.8362822,(02) 9677 6435,False,36.98,11:0,Today: Mon: 0700-0000 | Tomorrow: Tue: 0700-0000 | Wednesday: Wed: 0700-0000 | Thursday: Thu: 0700-0000 | Friday: Fri: 0700-0000 | Saturday: Sat: 0700-0000 | Sunday: Sun: 0700-0000 | Monday: Mon: 0700-0000
1609,Greenway Village,SUPERMARKETS,Shop M1 799 Richmond Road,,Colebee,NSW,2761,-33.7250412,150.8453242,(02) 9677 6471,False,37.12,11:0,Today: Mon: 0700-2200 | Tomorrow: Tue: 0700-2200 | Wednesday: Wed: 0700-2200 | Thursday: Thu: 0700-2200 | Friday: Fri: 0700-2200 | Saturday: Sat: 0700-2200 | Sunday: Sun: 0700-2200 | Monday: Mon: 0700-2200
22344,Ampol Foodary Marsden Park,AMPOL,875-Richmond Rd,,Marsden Park,NSW,2765,-33.716122,150.84571801,,True,37.51,11:0,Today: Mon: 24 Hours | Tomorrow: Tue: 24 Hours | Wednesday: Wed: 24 Hours | Thursday: Thu: 24 Hours | Friday: Fri: 24 Hours | Saturday: Sat: 24 Hours | Sunday: Sun: 24 Hours | Monday: Mon: 24 Hours
1143,Mt Druitt,SUPERMARKETS,49 Cnr Carlisle Ave and Luxford Road,,Mt Druitt,NSW,2770,-33.7679314,150.8195644,(02) 9677 6429,False,37.65,11:0,Today: Mon: 0700-2200 | Tomorrow: Tue: 0700-2200 | Wednesday: Wed: 0700-2200 | Thursday: Thu: 0700-2200 | Friday: Fri: 0700-2200 | Saturday: Sat: 0700-2200 | Sunday: Sun: 0700-2200 | Monday: Mon: 0700-2200
91536,Mt Druitt,EG,Mt Druitt Market Place North Parade,,Mt Druitt,NSW,2770,-33.7687,150.8187,02 5632 9508,False,37.7,11:0,Today: Mon: 0500-2300 | Tomorrow: Tue: 0500-2300 | Wednesday: Wed: 0500-2300 | Thursday: Thu: 0500-2300 | Friday: Fri: 0500-2300 | Saturday: Sat: 0600-2200 | Sunday: Sun: 0700-2100 | Monday: Mon: 0500-2300
22916,Ampol Foodary Leppington,AMPOL,1370-1380-Camden Valley Hwy,,Leppington,NSW,2179,-33.96494,150.817774,,True,37.86,11:0,Today: Mon: 24 Hours | Tomorrow: Tue: 24 Hours | Wednesday: Wed: 24 Hours | Thursday: Thu: 24 Hours | Friday: Fri: 24 Hours | Saturday: Sat: 24 Hours | Sunday: Sun: 24 Hours | Monday: Mon: 24 Hours
1479,Minto,SUPERMARKETS,10 Brookfield Road,,Minto,NSW,2566,-34.03029514,150.8491194,(02) 8785 3670,False,38.03,11:0,Today: Mon: 0700-2200 | Tomorrow: Tue: 0700-2200 | Wednesday: Wed: 0700-2200 | Thursday: Thu: 0700-2200 | Friday: Fri: 0700-2200 | Saturday: Sat: 0700-2200 | Sunday: Sun: 0700-2200 | Monday: Mon: 0700-2200
28631,Ampol Foodary Kemps Creek,AMPOL,1163-Mamre Rd,,Kemps Creek,NSW,2178,-33.8696993,150.7966309,,True,38.17,11:0,Today: Mon: 24 Hours | Tomorrow: Tue: 24 Hours | Wednesday: Wed: 24 Hours | Thursday: Thu: 24 Hours | Friday: Fri: 24 Hours | Saturday: Sat: 24 Hours | Sunday: Sun: 24 Hours | Monday: Mon: 24 Hours
1024,Leppington,SUPERMARKETS,108 Ingleburn Rd,,Leppington,NSW,2179,-33.96209298,150.8060734,(02) 8785 3681,False,38.81,11:0,Today: Mon: 0700-2200 | Tomorrow: Tue: 0700-2200 | Wednesday: Wed: 0700-2200 | Thursday: Thu: 0700-2200 | Friday: Fri: 0700-2200 | Saturday: Sat: 0700-2200 | Sunday: Sun: 0700-2200 | Monday: Mon: 0700-2200
91005,Minto,EG,2 Cary Grove (cnr Ben Lomond Dr),,Minto,NSW,2566,-34.0261,150.8368,02 8074 3202,False,38.81,11:0,Today: Mon: 0400-2200 | Tomorrow: Tue: 0400-2200 | Wednesday: Wed: 0400-2200 | Thursday: Thu: 0400-2200 | Friday: Fri: 0400-2200 | Saturday: Sat: 0500-2200 | Sunday: Sun: 0500-2200 | Monday: Mon: 0400-2200
1037,Gables,SUPERMARKETS,4 Lakefront Crescent,,Gables,NSW,2765,-33.632211,150.896587,(02) 4588 9017,False,38.85,11:0,Today: Mon: 0700-2200 | Tomorrow: Tue: 0700-2200 | Wednesday: Wed: 0700-2200 | Thursday: Thu: 0700-2200 | Friday: Fri: 0700-2200 | Saturday: Sat: 0700-2200 | Sunday: Sun: 0700-2200 | Monday: Mon: 0700-2200
91596,Vineyard,EG,1 Woodland Street,,Vineyard,NSW,2765,-33.656,150.8723,02 9157 9466,True,38.92,11:0,Today: Mon: 24 Hours | Tomorrow: Tue: 24 Hours | Wednesday: Wed: 24 Hours | Thursday: Thu: 24 Hours | Friday: Fri: 24 Hours | Saturday: Sat: 24 Hours | Sunday: Sun: 24 Hours | Monday: Mon: 24 Hours
1625,Emerton,SUPERMARKETS,"Emerton Village Shopping Centre, Cnr Jersey Road And Bunting Street",,Emerton,NSW,2770,-33.74477519,150.809519,(02) 9677 6453,False,39.34,11:0,Today: Mon: 0700-2200 | Tomorrow: Tue: 0700-2200 | Wednesday: Wed: 0700-2200 | Thursday: Thu: 0700-2200 | Friday: Fri: 0700-2200 | Saturday: Sat: 0700-2200 | Sunday: Sun: 0700-2200 | Monday: Mon: 0700-2200
